     2.11           OBSERVATION DATA    M (MIXED)           RINEX VERSION / TYPE
teqc  2019Feb25     NGS Web             20240109 03:44:52UTCPGM / RUN BY / DATE
Linux 2.4.21-27.ELsmp|Opteron|gcc|Linux 64|=+               COMMENT
teqc  2019Feb25     NOAA/NOS/NGS/CORS   20240108 10:47:39UTCCOMMENT
teqc  2020Oct7      UNAVCO Archive Ops  20240108 01:02:27UTCCOMMENT
BIT 2 OF LLI FLAGS DATA COLLECTED UNDER A/S CONDITION       COMMENT
RINEX file created by UNAVCO GPS Archive.                   COMMENT
For more information contact archive-gps@unavco.org         COMMENT
Monument ID: 18650                                          COMMENT
UNAVCO 4-char name:   MLFP                                  COMMENT
4-char name from Log or data file: MLFP                     COMMENT
Monument location: 33.918403 -117.317957 472.9814           COMMENT
Visit ID: 136974                                            COMMENT
                                                            COMMENT
Mills_Filtration_Plant_Riverside_CA_1998_CGPS               COMMENT
                                                            COMMENT
doi:10.7283/1PD4-QS98                                       COMMENT
doi:10.7283/8CMK-X192                                       COMMENT
End of DB comments                                          COMMENT
input file: mlfp0070.24_a.sbf                               COMMENT
 SNR is mapped to RINEX snr flag value [0-9]                COMMENT
  L1 & L2: min(max(int(snr_dBHz/6), 0), 9)                  COMMENT
teqc.e edited: all SBAS satellites excluded                 COMMENT
teqc.e edited: all QZSS satellites excluded                 COMMENT
MLFP                                                        MARKER NAME
49945M001                                                   MARKER NUMBER
Freddy Blume        UNAVCO                                  OBSERVER / AGENCY
3013274             SEPT POLARX5        5.5.0               REC # / TYPE / VERS
0220368168          TRM59800.99     SCIT                    ANT # / TYPE
 -2431724.3920 -4707761.3550  3539203.5140                  APPROX POSITION XYZ
        0.0083        0.0000        0.0000                  ANTENNA: DELTA H/E/N
     1     1                                                WAVELENGTH FACT L1/2
    20    L1    L2    C1    P2    P1    S1    S2    C2    L5# / TYPES OF OBSERV
          C5    S5    L6    C6    S6    L7    C7    S7    L8# / TYPES OF OBSERV
          C8    S8                                          # / TYPES OF OBSERV
teqc.w windowed: start @ 2024 Jan  7 00:00:00.000           COMMENT
teqc.w windowed:  end  @ 2024 Jan  7 02:00:00.000           COMMENT
  2024     1     7     0     0    0.0000000     GPS         TIME OF FIRST OBS
    18                                                      LEAP SECONDS
                                                            END OF HEADER
 24  1  7  0  0  0.0000000  0 26E26G12G22R21G24G11G14E04E21E19E15E13
                                G17G06R22G30E27G15R09R02R20R10R11G13
                                G19R01
 133225676.462 7                  25351977.026
        43.500                                    99486801.137 7  25351980.894
        45.000   108137796.702 7  25351980.215          47.500   102082090.450 7
  25351978.374          45.750   100784450.368 8  25351979.462          48.250
 132883449.63115 103545563.06452  25286881.274    25286885.549    25286880.921
        32.250          17.750


 113352843.459 8  88326961.36846  21570303.663    21570302.585    21570302.818
        49.000          38.750


 106775519.846 8  83047781.520 7  19953535.199    19953541.107    19953535.547
        51.500          46.500    19953541.228
                                                                  80004369.154 8
  19953526.974          48.750
 116508540.180 7  90785911.460 6  22170823.349    22170826.394    22170823.063
        43.750          41.750    22170826.859    87003176.812 8  22170826.903
        48.000

 129002013.175 6 100521087.789 6  24548259.062    24548262.983    24548258.678
        36.500          36.500    24548263.592    96332730.583 6  24548268.201
        40.250                                                   129002011.167 6
  24548258.931          36.750
 115904259.313 7  90315079.886 7  22055822.186    22055822.905    22055821.900
        45.250          44.000    22055823.102    86551991.185 8  22055827.001
        48.000                                                   115904272.320 7
  22055822.225          45.500
 140694943.367 6                  26773348.477
        38.500                                   105064453.825 6  26773353.606
        40.750   114200479.328 7  26773351.836          43.500   107805257.216 6
  26773351.073          41.000   106434862.595 7  26773352.076          44.000
 125953823.787 8                  23968190.200
        48.500                                    94056537.446 8  23968193.410
        50.000   102235327.175 8  23968192.454          53.000    96510165.323 8
  23968191.194          51.250    95283354.959 8  23968192.206          53.750
 140065033.401 6                  26653477.067
        37.250                                   104594078.661 6  26653482.268
        37.000   113689190.779 6  26653480.136          38.250   107322606.762 6
  26653479.940          38.500   105958347.786 6  26653480.952          40.750
 143317768.677 6                  27272446.463
        37.250                                   107023112.885 6  27272453.546
        40.250   116329419.688 6  27272449.603          41.000   109815000.515 6
  27272450.293          39.500   108419065.274 7  27272451.707          43.000
 128604693.921 7                  24472627.763
        46.750                                    96036070.138 8  24472632.146
        48.000   104386986.794 8  24472628.537          50.750    98541341.794 8
  24472629.635          49.250    97288708.541 8  24472630.691          51.750
 111597788.357 8  86959433.058 7  21236306.333    21236305.371    21236305.851
        48.750          44.500    21236305.385


 115716134.950 7  90168498.441 7  22020026.891    22020030.535    22020026.668
        45.000          43.000    22020031.420    86411491.389 7  22020030.937
        46.750

 126131446.936 6  98102239.98415  23628660.841    23628670.605    23628661.995
        41.000          30.250    23628669.630
                                                                  94739738.827 6
  23628658.301          36.750
 122327650.132 6  95320283.083 6  23278175.145    23278179.898    23278174.426
        41.750          38.000    23278180.108    91348600.733 7  23278179.682
        44.000

 139685180.561 6                  26581192.917
        39.750                                   104310429.810 6  26581197.764
        41.250   113380877.795 7  26581196.370          43.000   107031555.103 7
  26581195.799          42.750   105671001.030 7  26581196.770          45.000
 125557077.789 6  97836706.692 6  23892708.625    23892712.077    23892708.375
        38.750          37.500    23892711.952


 120323185.758 7  93584710.748 5  22532651.693    22532658.046    22532651.831
        45.000          33.750    22532656.392
                                                                  90345288.674 6
  22532644.735          39.750
 129707449.263 6 100883618.760 5  24307116.063                    24307115.786
        40.000          31.500    24307124.968


 107511237.002 6  83619825.806 6  20105112.283    20105119.557    20105112.998
        41.500          39.000    20105120.147


 106865601.891 8                  20047693.511                    20047693.122
        48.250


 111276792.848 8  86548654.341 7  20823918.009    20823922.214    20823918.081
        51.000          42.000    20823922.545
                                                                  83494072.662 7
  20823909.998          46.000
 120293524.801 7  93735248.15544  22891080.899    22891081.825    22891080.412
        43.500          25.250


 105690899.328 8  82356657.51647  20112252.662    20112250.064    20112251.379
        50.500          46.500


 127900101.743 5  99477803.772 4  23926339.973                    23926340.573
        34.250          28.000    23926354.741


 24  1  7  0  0 15.0000000  0 26E26G12G22R21G24G11G14E04E21E19E15E13
                                G17G06R22G30E27G15R09R02R20R10R11G13
                                G19R01
 133184276.944 7                  25344098.670
        43.500                                    99455885.986 7  25344102.695
        44.750   108104193.253 7  25344101.890          47.500   102050368.807 7
  25344100.246          45.500   100753131.971 8  25344101.334          48.250
 132842216.958 5 103513433.79743  25279035.279    25279039.174    25279034.890
        32.750          18.500


 113366632.138 8  88337705.80746  21572927.597    21572926.533    21572926.752
        49.250          38.750


 106736680.264 8  83017572.996 7  19946277.079    19946283.032    19946277.351
        51.750          46.750    19946282.585
                                                                  79975267.666 8
  19946268.747          48.750
 116472829.322 7  90758084.883 7  22164027.703    22164030.859    22164027.417
        43.750          42.000    22164030.908    86976509.678 7  22164031.046
        47.750

 128947621.454 6 100478704.689 6  24537908.154    24537912.697    24537907.797
        36.500          36.500    24537912.826    96292113.455 6  24537917.887
        40.250                                                   128947619.476 6
  24537908.368          36.250
 115930290.838 7  90335364.200 7  22060775.629    22060776.505    22060775.343
        45.250          44.250    22060776.859    86571430.311 8  22060780.650
        48.000                                                   115930303.841 7
  22060775.632          45.500
 140700388.274 6                  26774384.560
        38.500                                   105068519.865 6  26774389.756
        40.750   114204898.920 7  26774387.883          43.500   107809429.324 6
  26774386.878          40.750   106438981.669 7  26774388.069          43.750
 125955626.350 8                  23968533.204
        48.750                                    94057883.528 8  23968536.446
        50.000   102236790.300 8  23968535.453          52.750    96511546.511 8
  23968534.154          51.000    95284718.593 8  23968535.210          53.500
 140101761.830 6                  26660466.512
        37.250                                   104621505.723 6  26660471.400
        36.750   113719002.784 6  26660469.111          38.250   107350749.301 6
  26660469.278          38.250   105986132.585 6  26660470.111          40.500
 143348530.528 6                  27278300.670
        37.750                                   107046084.399 6  27278307.257
        40.250   116354388.732 6  27278303.237          40.750   109838571.290 6
  27278304.299          39.750   108442336.418 7  27278305.543          43.000
 128598439.493 7                  24471437.541
        47.000                                    96031399.651 8  24471441.955
        48.000   104381910.169 8  24471438.284          50.750    98536549.466 8
  24471439.471          49.250    97283977.132 8  24471440.496          51.750
 111629264.709 8  86983960.108 7  21242295.999    21242295.078    21242295.517
        48.750          44.500    21242295.368


 115670946.049 7  90133286.391 7  22011427.624    22011431.291    22011427.396
        45.500          43.250    22011432.091    86377746.521 7  22011431.670
        46.750

 126064731.901 6  98050350.606 5  23616163.286    23616172.808    23616164.144
        41.750          30.500    23616173.519
                                                                  94689627.976 6
  23616160.432          37.000
 122378606.822 6  95359989.569 6  23287871.656    23287876.655    23287870.928
        41.500          38.000    23287876.990    91386652.756 7  23287876.779
        44.250

 139709000.951 6                  26585725.697
        40.000                                   104328217.761 6  26585730.755
        41.500   113400212.520 7  26585729.516          43.250   107049807.084 7
  26585728.534          42.500   105689020.996 7  26585729.635          45.000
 125586949.848 6  97859983.601 6  23898392.817    23898396.631    23898392.567
        39.500          37.250    23898396.510


 120363833.959 7  93616325.973 5  22540264.240    22540269.565    22540264.195
        45.000          34.000    22540269.315
                                                                  90375809.542 6
  22540257.090          40.000
 129704081.179 6 100880999.154 5  24306485.245                    24306485.223
        40.500          31.250    24306493.028


 107541573.369 6  83643420.772 6  20110786.149    20110792.895    20110786.028
        41.250          39.500    20110793.468


 106875062.114 8                  20049468.418                    20049467.940
        48.500


 111239688.081 8  86519795.120 7  20816974.281    20816978.686    20816974.410
        50.750          42.250    20816978.463
                                                                  83466231.961 7
  20816966.546          46.000
 120336259.437 7  93768547.86644  22899213.076    22899213.952    22899212.594
        43.750          25.250


 105693641.147 8  82358794.01847  20112774.361    20112771.776    20112773.078
        50.750          46.750


 127934800.753 5  99504791.883 4  23932833.332                    23932833.139
        34.750          28.500    23932846.463


 24  1  7  0  0 30.0000000  0 26E26G12G22R21G24G11G14E04E21E19E15E13
                                G17G06R22G30E27G15R09R02R20R10R11G13
                                G19R01
 133142925.168 7                  25336229.556
        43.500                                    99425006.484 7  25336233.669
        44.750   108070628.548 7  25336232.878          47.500   102018683.748 7
  25336231.230          45.500   100721849.691 8  25336232.287          48.250
 132800980.521 5 103481301.58343  25271187.588    25271191.724    25271187.199
        33.000          19.250


 113380452.436 8  88348474.88246  21575557.472    21575556.506    21575556.627
        49.000          39.000


 106698007.217 8  82987494.003 7  19939050.031    19939055.966    19939050.411
        51.500          47.000    19939055.680
                                                                  79946290.952 8
  19939041.730          48.750
 116437222.430 7  90730339.294 7  22157251.935    22157255.087    22157251.654
        43.750          42.250    22157255.235    86949920.176 7  22157255.207
        47.750

 128893226.933 6 100436319.395 6  24527557.593    24527562.069    24527557.240
        36.500          37.000    24527562.967    96251494.221 6  24527566.759
        40.250                                                   128893224.921 6
  24527557.274          36.750
 115956366.783 7  90355683.123 7  22065737.666    22065738.542    22065737.380
        45.000          44.250    22065738.806    86590902.614 8  22065742.726
        48.000                                                   115956379.787 7
  22065737.664          46.000
 140705932.446 6                  26775439.820
        38.750                                   105072660.006 6  26775444.707
        40.500   114209399.064 7  26775442.803          43.750   107813677.449 6
  26775441.669          40.500   106443175.802 7  26775442.998          43.500
 125957453.178 8                  23968880.865
        48.750                                    94059247.730 8  23968884.152
        50.000   102238273.122 8  23968883.052          53.000    96512946.303 8
  23968881.793          51.250    95286100.591 8  23968882.823          53.500
 140138521.345 6                  26667461.572
        37.250                                   104648955.999 6  26667466.450
        36.500   113748840.057 6  26667464.389          38.250   107378915.675 6
  26667464.467          38.250   106013940.912 6  26667465.175          40.500
 143379370.758 6                  27284169.064
        37.500                                   107069114.427 6  27284175.825
        40.250   116379421.382 6  27284172.016          40.500   109862202.109 6
  27284173.095          40.000   108465666.844 7  27284174.192          43.250
 128592297.662 7                  24470268.751
        47.000                                    96026813.245 8  24470273.128
        48.000   104376924.931 8  24470269.538          50.750    98531843.409 8
  24470270.644          49.000    97279330.901 8  24470271.710          51.750
 111660799.335 8  87008532.558 7  21248296.901    21248295.943    21248296.419
        48.750          44.750    21248296.301


 115625836.847 7  90098136.429 7  22002843.350    22002847.150    22002843.122
        45.250          43.000    22002847.669    86344061.157 7  22002847.583
        46.750

 125998043.441 7  97998481.870 5  23603671.099    23603679.750    23603670.978
        42.000          30.500    23603679.781
                                                                  94639537.073 6
  23603667.410          37.250
 122429622.006 6  95399741.621 6  23297579.425    23297584.733    23297578.692
        41.250          38.000    23297584.711    91424748.490 7  23297584.334
        44.000

 139732840.304 6                  26590262.035
        39.750                                   104346019.842 6  26590267.343
        41.250   113419562.625 7  26590266.234          43.500   107068073.575 7
  26590265.082          42.500   105707055.282 7  26590266.152          45.000
 125616896.752 6  97883318.836 6  23904092.148    23904095.242    23904091.903
        39.750          37.000    23904095.465


 120404559.093 7  93648001.072 5  22547889.686    22547896.483    22547890.228
        44.500          33.750    22547896.881
                                                                  90406388.181 6
  22547883.221          40.000
 129700881.501 6 100878510.602 5  24305884.708                    24305884.797
        40.000          31.250    24305893.322


 107572086.700 6  83667153.363 6  20116492.509    20116498.982    20116492.160
        41.500          39.750    20116499.917


 106884627.668 8                  20051262.699                    20051262.515
        48.750


 111202625.592 8  86490968.768 7  20810038.232    20810042.942    20810038.702
        50.750          42.500    20810043.090
                                                                  83438422.987 7
  20810030.592          46.000
 120379047.351 7  93801889.09344  22907355.295    22907355.773    22907354.817
        43.500          25.500


 105696495.543 8  82361018.23847  20113317.379    20113314.892    20113316.096
        50.500          46.750


 127969595.906 5  99531854.739 4  23939342.746                    23939342.607
        35.250          28.000    23939350.833


 24  1  7  0  0 45.0000000  0 26E26G12G22R21G24G11G14E04E21E19E15E13
                                G17G06R22G30E27G15R09R02R20R10R11G13
                                G19R01
 133101618.013 7                  25328369.259
        43.750                                    99394160.301 7  25328373.100
        44.750   108037100.066 7  25328372.291          47.500   101987032.876 7
  25328370.607          45.750   100690601.163 8  25328371.730          48.250
 132759737.060 5 103449163.90843  25263339.848    25263343.098    25263339.437
        33.750          20.500


 113394301.161 8  88359266.10846  21578192.762    21578191.774    21578191.917
        49.000          39.000


 106659497.593 8  82957542.109 7  19931853.778    19931859.521    19931853.952
        52.250          46.750    19931859.217
                                                                  79917436.688 8
  19931845.289          49.000
 116401716.490 7  90702672.383 7  22150495.302    22150498.691    22150495.021
        43.750          42.500    22150498.642    86923406.057 7  22150498.632
        47.750

 128838826.552 6 100393929.530 6  24517205.797    24517210.121    24517205.413
        36.500          36.500    24517210.121    96210870.629 6  24517214.753
        40.500                                                   128838824.552 6
  24517205.474          36.750
 115982483.836 7  90376034.076 7  22070707.639    22070708.439    22070707.362
        45.000          44.000    22070708.627    86610405.622 8  22070712.507
        48.000                                                   115982496.844 7
  22070707.655          46.000
 140711572.399 6                  26776513.288
        39.250                                   105076871.674 6  26776517.898
        40.750   114213976.954 7  26776516.217          43.250   107817998.986 6
  26776514.962          40.500   106447442.404 7  26776516.252          43.750
 125959300.996 8                  23969232.493
        48.750                                    94060627.609 8  23969235.811
        50.000   102239772.986 8  23969234.765          52.750    96514362.178 8
  23969233.421          51.250    95287498.467 8  23969234.437          53.750
 140175308.417 6                  26674461.818
        36.750                                   104676426.856 6  26674466.902
        37.000   113778699.673 6  26674464.600          38.000   107407103.151 6
  26674464.874          38.250   106041770.078 6  26674465.497          40.500
 143410285.791 6                  27290052.089
        37.500                                   107092200.319 6  27290058.993
        40.250   116404514.753 6  27290054.504          40.250   109885890.230 6
  27290055.856          40.250   108489053.849 7  27290057.078          43.250
 128586265.095 7                  24469120.775
        47.000                                    96022308.436 8  24469125.157
        48.000   104372028.389 8  24469121.589          50.750    98527221.076 8
  24469122.624          49.250    97274767.330 8  24469123.725          51.750
 111692388.833 8  87033147.755 7  21254308.064    21254307.371    21254307.586
        48.500          44.750    21254307.867


 115580804.384 7  90063046.274 7  21994274.001    21994277.622    21994273.773
        45.250          43.000    21994278.110    86310433.100 7  21994278.203
        47.000

 125931378.691 7  97946631.600 5  23591183.182    23591191.314    23591182.235
        42.750          30.500    23591193.184
                                                                  94589464.029 6
  23591178.634          37.500
 122480692.161 6  95439536.510 6  23307298.110    23307303.077    23307297.386
        41.250          38.250    23307303.967    91462885.242 7  23307302.710
        43.750

 139756695.283 6                  26594801.865
        40.000                                   104363833.620 6  26594806.878
        41.500   113438925.428 7  26594805.407          43.250   107086352.075 7
  26594804.546          42.750   105725101.420 7  26594805.615          45.000
 125646914.797 6  97906709.492 6  23909804.486    23909807.464    23909804.227
        40.250          36.250    23909807.839


 120445357.763 7  93679733.344 5  22555530.130    22555536.672    22555530.573
        44.750          34.000    22555536.068
                                                                  90437022.046 6
  22555523.911          40.250
 129697846.981 6 100876150.432 5  24305317.064                    24305317.609
        41.250          31.500    24305326.130


 107602773.132 6  83691020.600 6  20122230.456    20122237.368    20122230.639
        41.500          39.500    20122238.266


 106894295.087 8                  20053076.520                    20053076.113
        48.500


 111165602.251 8  86462172.872 7  20803109.920    20803114.317    20803110.184
        51.000          42.250    20803114.326
                                                                  83410643.398 7
  20803102.360          46.500
 120421884.678 7  93835268.83244  22915506.774    22915507.829    22915506.305
        43.000          25.000


 105699459.063 8  82363327.49447  20113881.462    20113878.769    20113880.175
        50.500          46.750


 128004483.480 5  99558989.500 4  23945867.949                    23945867.981
        33.750          28.000    23945878.469


 24  1  7  0  1  0.0000000  0 26E26G12G22R21G24G11G14E04E21E19E15E13
                                G17G06R22G30E27G15R09R02R20R10R11G13
                                G19R01
 133060357.840 7                  25320517.620
        44.000                                    99363349.219 7  25320521.358
        44.500   108003609.730 7  25320520.652          47.250   101955418.011 7
  25320518.950          45.750   100659388.189 8  25320520.101          48.250
 132718488.631 5 103417022.37043  25255490.320    25255493.915    25255489.923
        34.250          21.500


 113408180.573 8  88370081.25146  21580833.616    21580832.878    21580832.771
        48.500          38.500


 106621154.095 8  82927719.434 7  19924688.332    19924694.147    19924688.560
        52.250          46.000    19924694.080
                                                                  79888706.901 8
  19924679.835          48.750
 116366313.899 7  90675086.004 7  22143758.309    22143761.855    22143758.023
        43.750          42.500    22143762.226    86896969.110 7  22143761.755
        47.500

 128784422.772 5 100351537.029 6  24506852.327    24506857.513    24506851.930
        35.750          36.500    24506857.451    96170244.504 6  24506861.823
        40.250                                                   128784420.789 6
  24506852.308          36.500
 116008644.152 7  90396418.747 7  22075685.725    22075686.574    22075685.453
        44.750          43.750    22075686.659    86629940.931 7  22075690.558
        47.750                                                   116008657.162 7
  22075685.656          46.250
 140717310.172 6                  26777604.689
        39.000                                   105081156.393 6  26777609.791
        40.500   114218634.260 7  26777608.079          43.000   107822395.485 6
  26777606.913          40.750   106451783.013 7  26777608.104          43.750
 125961171.974 8                  23969588.504
        48.750                                    94062024.784 8  23969591.876
        50.000   102241291.651 8  23969590.817          52.750    96515795.802 8
  23969589.423          51.250    95288913.866 8  23969590.457          53.750
 140212124.859 6                  26681468.246
        37.250                                   104703919.655 6  26681473.098
        37.250   113808583.140 6  26681470.267          37.750   107435313.148 6
  26681470.600          38.000   106069621.476 6  26681471.446          40.750
 143441277.544 6                  27295949.706
        37.750                                   107115343.519 6  27295956.463
        40.250   116429670.407 6  27295952.269          40.000   109909637.177 6
  27295953.429          40.500   108512498.920 7  27295954.704          43.500
 128580343.989 7                  24467994.032
        47.250                                    96017886.851 8  24467998.280
        48.000   104367222.312 8  24467994.756          50.500    98522684.145 8
  24467995.907          49.250    97270288.071 8  24467996.941          51.750
 111724034.823 8  87057806.985 7  21260330.296    21260329.464    21260329.818
        48.500          44.500    21260329.585


 115535851.148 7  90028017.837 7  21985719.674    21985723.188    21985719.442
        45.000          42.750    21985724.283    86276864.202 7  21985723.844
        47.000

 125864740.264 7  97894801.765 5  23578699.301    23578707.321    23578698.143
        42.250          30.000    23578705.850
                                                                  94539410.710 6
  23578695.137          37.250
 122531819.095 6  95479375.645 6  23317026.883    23317032.329    23317026.159
        40.750          38.000    23317032.938    91501064.410 7  23317032.038
        43.750

 139780568.095 6                  26599344.791
        40.250                                   104381660.706 6  26599349.786
        41.500   113458302.712 7  26599348.006          42.750   107104644.211 7
  26599347.167          42.750   105743161.033 7  26599348.470          45.250
 125677005.662 6  97930156.897 6  23915530.813    23915533.545    23915530.536
        40.250          36.000    23915533.643


 120486231.572 7  93711524.044 5  22563184.456    22563190.854    22563184.822
        44.500          33.750    22563189.915
                                                                  90467712.308 6
  22563178.053          40.000
 129694979.649 6 100873920.356 5  24304777.909                    24304778.808
        39.750          30.500    24304790.776


 107633634.101 6  83715023.591 6  20128001.271    20128008.612    20128001.790
        41.250          38.500    20128008.375


 106904066.673 8                  20054909.553                    20054909.240
        48.750


 111128620.510 8  86433409.350 7  20796189.341    20796193.943    20796189.582
        51.000          42.000    20796194.117
                                                                  83382895.012 7
  20796181.646          46.250
 120464773.043 7  93868688.32544  22923667.868    22923669.178    22923667.403
        42.000          24.250


 105702533.634 8  82365723.27947  20114466.505    20114463.831    20114465.222
        50.250          46.250


 128039464.696 5  99586197.097 4  23952411.689                    23952412.673
        33.000          28.500    23952421.556


 24  1  7  0  1 15.0000000  0 26E26G12G22R21G24G11G14E04E21E19E15E13
                                G17G06R22G30E27G15R09R02R20R10R11G13
                                G19R01
 133019144.357 7                  25312674.843
        44.000                                    99332572.991 7  25312678.595
        44.500   107970157.273 7  25312678.036          47.750   101923838.912 7
  25312676.307          46.000   100628210.526 8  25312677.364          48.250
 132677234.683 5 103384876.52743  25247639.177    25247643.407    25247638.757
        35.000          23.000


 113422090.069 8  88380919.83346  21583480.783    21583479.834    21583479.938
        48.500          38.750


 106582976.171 8  82898025.535 7  19917553.788    19917559.607    19917554.168
        52.250          47.000    19917559.429
                                                                  79860101.171 8
  19917545.300          48.750
 116331014.407 7  90647579.964 7  22137041.035    22137044.504    22137040.754
        43.750          42.750    22137044.996    86870609.165 7  22137044.195
        47.250

 128730015.406 6 100309141.733 6  24496498.953    24496504.260    24496498.542
        36.250          37.250    24496504.113    96129615.667 6  24496508.740
        40.750                                                   128730013.409 6
  24496499.591          37.250
 116034847.190 7  90416836.709 7  22080672.172    22080672.797    22080671.900
        45.000          44.250    22080673.110    86649508.140 7  22080676.785
        47.750                                                   116034860.193 7
  22080672.327          46.000
 140723145.157 6                  26778715.048
        38.750                                   105085513.712 6  26778720.181
        40.500   114223370.445 7  26778718.179          43.250   107826866.461 6
  26778717.331          41.000   106456197.161 7  26778718.472          43.750
 125963065.616 8                  23969948.785
        48.750                                    94063438.884 8  23969952.210
        49.750   102242828.704 8  23969951.249          53.250    96517246.784 8
  23969949.726          51.500    95290346.408 8  23969950.796          53.750
 140248969.634 6                  26688478.871
        36.750                                   104731433.567 6  26688484.523
        37.250   113838489.588 6  26688481.912          38.000   107463544.826 6
  26688481.936          38.250   106097494.271 6  26688482.858          40.750
 143472345.268 6                  27301861.474
        37.250                                   107138543.441 6  27301868.097
        40.000   116454887.716 6  27301864.609          40.500   109933442.302 6
  27301865.573          40.750   108536001.445 7  27301866.647          43.250
 128574533.824 7                  24466888.308
        47.250                                    96013548.116 7  24466892.610
        47.750   104362506.283 8  24466889.149          51.000    98518232.221 8
  24466890.220          49.500    97265892.743 8  24466891.294          51.750
 111755736.498 8  87082509.599 7  21266362.683    21266362.016    21266362.205
        48.250          44.750    21266362.427


 115490977.000 7  89993051.037 7  21977180.182    21977183.853    21977179.954
        45.000          43.250    21977184.394    86243354.364 7  21977184.451
        47.000

 125798127.899 7  97842992.224 5  23566220.001    23566228.209    23566219.425
        42.500          31.000    23566229.247
                                                                  94489376.980 6
  23566216.097          37.500
 122583002.006 6  95519258.408 6  23326766.884    23326772.165    23326766.156
        40.500          38.250    23326772.308    91539285.385 7  23326771.497
        43.250

 139804458.205 6                  26603890.818
        40.000                                   104399500.716 6  26603896.046
        41.250   113477694.021 7  26603894.521          43.500   107122949.607 7
  26603893.146          42.750   105761233.737 7  26603894.659          45.000
 125707168.454 6  97953660.379 5  23921270.532    23921273.371    23921270.251
        40.250          35.750    23921273.813


 120527180.287 7  93743372.998 5  22570853.147    22570859.702    22570853.196
        45.250          34.500    22570859.823
                                                                  90498458.792 6
  22570846.999          40.250
 129692279.001 6 100871819.855 5  24304273.521                    24304273.592
        40.000          30.500    24304279.309


 107664668.831 6  83739161.731 6  20133805.725    20133812.426    20133805.421
        41.500          39.500    20133812.310


 106913942.434 8                  20056762.224                    20056761.924
        48.500


 111091680.125 8  86404677.970 7  20789276.777    20789280.485    20789276.800
        51.250          42.500    20789280.566
                                                                  83355177.651 7
  20789268.797          46.250
 120507711.506 7  93902146.83644  22931839.022    22931840.225    22931838.553
        42.500          24.500


 105705718.606 8  82368205.09147  20115072.532    20115069.903    20115071.249
        50.250          46.500


 128074538.883 5  99613476.984 4  23958973.484                    23958974.445
        33.750          28.250    23958983.015


 24  1  7  0  1 30.0000000  0 26E26G12G22R21G24G11G14E04E21E19E15E13
                                G17G06R22G30E27G15R09R02R20R10R11G13
                                G19R01
 132977977.569 7                  25304841.272
        44.250                                    99301831.631 7  25304844.773
        44.750   107936742.729 7  25304844.206          47.750   101892295.603 7
  25304842.410          45.750   100597068.190 8  25304843.515          48.250
 132635974.925 6 103352726.14744  25239787.563    25239791.940    25239787.130
        36.000          24.500


 113436029.507 8  88391781.74746  21586133.564    21586132.518    21586132.719
        49.000          39.000


 106544964.180 8  82868460.692 7  19910450.227    19910456.077    19910450.544
        52.000          47.000    19910456.153
                                                                  79831619.777 8
  19910441.859          48.750
 116295818.099 7  90620154.314 7  22130343.448    22130346.752    22130343.162
        44.250          42.750    22130346.832    86844326.261 7  22130346.362
        47.000

 128675604.531 6 100266743.712 6  24486144.755    24486150.232    24486144.389
        37.000          37.250    24486149.785    96088984.241 6  24486154.935
        40.750                                                   128675602.520 6
  24486145.308          37.250
 116061092.733 7  90437287.792 7  22085666.603    22085667.090    22085666.331
        45.500          44.000    22085667.327    86669107.093 7  22085671.096
        47.750                                                   116061105.740 7
  22085666.673          46.000
 140729076.977 6                  26779844.048
        38.750                                   105089943.342 6  26779848.627
        40.750   114228185.262 7  26779846.803          42.750   107831411.648 6
  26779846.085          40.750   106460684.567 7  26779847.311          43.750
 125964981.738 8                  23970313.527
        48.750                                    94064869.771 8  23970316.858
        50.250   102244384.015 8  23970315.830          53.000    96518714.999 8
  23970314.294          51.250    95291795.959 8  23970315.404          53.750
 140285842.528 6                  26695495.629
        36.500                                   104758968.490 6  26695501.282
        38.000   113868418.883 6  26695498.581          38.000   107491798.062 6
  26695498.610          38.000   106125388.349 6  26695499.586          41.000
 143503488.512 6                  27307787.953
        37.750                                   107161799.765 6  27307794.884
        40.750   116480166.331 6  27307790.775          40.000   109957305.306 6
  27307791.810          40.500   108559561.108 7  27307793.009          43.500
 128568834.393 7                  24465803.806
        47.250                                    96009292.070 8  24465807.987
        48.000   104357880.137 8  24465804.674          50.750    98513865.153 8
  24465805.632          49.250    97261581.185 8  24465806.707          51.750
 111787493.314 8  87107255.177 7  21272405.862    21272405.159    21272405.380
        48.500          45.000    21272405.512


 115446182.076 7  89958145.972 7  21968655.816    21968659.666    21968655.584
        45.000          43.000    21968660.422    86209903.684 7  21968660.278
        47.000

 125731541.960 6  97791203.214 5  23553745.378    23553754.637    23553745.355
        41.750          32.250    23553754.829
                                                                  94439363.078 6
  23553742.712          37.750
 122634240.424 6  95559184.411 6  23336517.248    23336522.489    23336516.520
        41.000          38.000    23336522.999    91577547.796 7  23336522.340
        43.250

 139828365.454 6                  26608440.055
        40.250                                   104417353.513 6  26608445.413
        41.500   113497099.246 7  26608443.826          43.000   107141268.136 7
  26608442.463          42.500   105779319.399 7  26608444.110          45.000
 125737402.583 6  97977219.438 5  23927023.797    23927026.641    23927023.511
        40.500          35.000    23927026.453


 120568203.464 7  93775279.882 5  22578536.128    22578542.021    22578536.097
        45.250          34.000    22578541.561
                                                                  90529261.233 6
  22578529.220          40.250
 129689744.479 6 100869848.629 5  24303797.762                    24303797.722
        39.250          32.250    24303806.198


 107695876.590 6  83763434.429 6  20139641.389    20139648.233    20139641.581
        41.750          40.000    20139649.070


 106923922.188 8                  20058634.309                    20058633.804
        48.500


 111054781.176 8  86375978.810 7  20782371.466    20782375.616    20782371.533
        51.000          42.250    20782375.912
                                                                  83327491.390 7
  20782363.660          46.250
 120550699.536 7  93935643.99044  22940019.346    22940020.701    22940018.886
        42.750          25.000


 105709013.627 8  82370772.65547  20115699.579    20115696.945    20115698.292
        50.500          46.750


 128109705.300 5  99640828.629 4  23965551.478                    23965552.175
        32.750          28.500    23965563.866


 24  1  7  0  1 45.0000000  0 26E26G12G22R21G24G11G14E04E21E19E15E13
                                G17G06R22G30E27G15R09R02R20R10R11G13
                                G19R01
 132936858.074 7                  25297016.437
        44.500                                    99271125.596 7  25297020.006
        45.000   107903366.573 7  25297019.335          47.500   101860788.528 7
  25297017.580          45.750   100565961.635 8  25297018.658          48.250
 132594709.789 6 103320571.59044  25231935.541    25231939.561    25231935.094
        36.500          25.000


 113449999.261 8  88402667.28246  21588791.805    21588790.852    21588790.960
        49.000          38.750


 106507118.809 8  82839025.445 7  19903378.055    19903383.722    19903378.328
        52.250          46.750    19903383.696
                                                                  79803263.224 8
  19903369.558          49.000
 116260725.604 7  90592809.560 7  22123665.620    22123668.758    22123665.339
        44.500          42.500    22123668.986    86818120.873 7  22123668.449
        47.000

 128621190.826 6 100224343.475 6  24475790.650    24475795.340    24475790.279
        37.000          37.750    24475795.725    96048350.702 6  24475800.048
        40.750                                                   128621188.821 6
  24475790.282          36.750
 116087381.168 7  90457772.281 7  22090669.311    22090669.606    22090669.034
        45.500          43.500    22090669.834    86688738.072 7  22090673.594
        47.750                                                   116087394.172 7
  22090669.287          46.000
 140735105.940 6                  26780991.036
        38.750                                   105094445.502 6  26780995.844
        40.750   114233078.918 7  26780994.024          42.500   107836031.271 6
  26780993.440          40.750   106465245.461 7  26780994.626          43.750
 125966920.746 8                  23970682.440
        49.000                                    94066317.749 8  23970685.838
        50.250   102245957.894 8  23970684.752          53.000    96520200.746 8
  23970683.305          51.250    95293262.822 8  23970684.361          53.750
 140322743.475 6                  26702517.668
        36.750                                   104786524.374 6  26702523.451
        38.250   113898370.950 6  26702520.996          38.250   107520072.800 6
  26702520.421          38.000   106153303.662 6  26702521.728          41.250
 143534707.447 6                  27313728.807
        37.750                                   107185112.589 6  27313735.640
        41.000   116505506.387 6  27313731.057          39.750   109981226.302 6
  27313732.977          40.500   108583178.020 7  27313733.823          43.750
 128563246.102 7                  24464740.377
        47.500                                    96005119.017 8  24464744.540
        48.250   104353344.200 8  24464741.196          50.750    98509583.232 8
  24464742.199          49.500    97257353.699 8  24464743.278          52.000
 111819305.370 8  87132043.798 7  21278459.383    21278458.909    21278458.905
        48.500          44.750    21278459.226


 115401467.093 7  89923303.194 7  21960147.033    21960150.642    21960146.810
        45.500          43.000    21960151.317    86176512.707 7  21960151.249
        47.250

 125664983.129 6  97739435.249 5  23541276.517    23541285.986    23541276.888
        41.750          32.000    23541287.153
                                                                  94389369.574 6
  23541273.861          38.000
 122685534.391 6  95599153.720 6  23346278.120    23346283.307    23346277.387
        41.000          37.250    23346283.325    91615851.701 7  23346283.118
        43.250

 139852290.235 6                  26612992.918
        40.250                                   104435219.407 6  26612998.119
        41.250   113516518.706 7  26612996.362          43.000   107159600.108 7
  26612995.362          42.500   105797418.333 7  26612996.874          45.000
 125767708.106 6  98000834.107 5  23932790.629    23932793.594    23932790.348
        40.500          34.000    23932794.112


 120609301.655 7  93807245.101 5  22586232.340    22586238.193    22586232.881
        45.250          34.000    22586237.808
                                                                  90560119.975 6
  22586225.646          40.250
 129687376.754 6 100868007.082 5  24303353.734                    24303354.065
        39.000          31.750    24303362.304


 107727257.540 6  83787841.840 6  20145509.637    20145516.763    20145509.785
        41.500          39.750    20145517.425


 106934006.336 8                  20060526.100                    20060525.590
        48.500


 111017924.329 8  86347312.402 7  20775473.563    20775478.447    20775474.059
        51.000          42.500    20775478.277
                                                                  83299836.713 7
  20775466.338          46.500
 120593737.022 7  93969179.66744  22948209.556    22948210.754    22948209.087
        43.000          25.750


 105712418.704 8  82373425.98247  20116347.458    20116344.932    20116346.175
        50.500          46.500


 128144963.521 5                  23972147.899                    23972147.854
        33.000


 24  1  7  0  2  0.0000000  0 26E26G12G22R21G24G11G14E04E21E19E15E13
                                G17G06R22G30E27G15R09R02R20R10R11G13
                                G19R01
 132895785.549 7                  25289200.543
        44.500                                    99240454.632 7  25289204.048
        44.750   107870028.543 7  25289203.244          47.250   101829317.439 7
  25289201.645          45.750   100534890.609 8  25289202.737          48.250
 132553438.627 6 103288412.32544  25224081.262    25224085.841    25224080.820
        36.000          25.000


 113463998.752 8  88413575.99046  21591455.865    21591454.800    21591455.016
        48.500          39.000


 106469439.735 8  82809719.547 7  19896336.659    19896342.554    19896337.133
        52.000          47.250    19896342.487
                                                                  79775031.272 8
  19896328.327          49.000
 116225736.629 7  90565545.484 7  22117006.990    22117010.531    22117006.709
        43.500          43.000    22117010.884    86791992.797 7  22117010.262
        47.250

 128566774.067 6 100181940.886 6  24465435.715    24465440.186    24465435.340
        37.000          38.000    24465440.481    96007714.867 6  24465444.572
        40.750                                                   128566772.066 6
  24465435.906          37.500
 116113711.965 7  90478289.792 7  22095679.716    22095680.158    22095679.439
        45.000          44.000    22095680.842    86708400.686 7  22095684.092
        47.750                                                   116113724.969 7
  22095679.943          46.000
 140741231.387 6                  26782156.414
        38.250                                   105099019.704 6  26782161.440
        40.750   114238050.875 7  26782159.602          42.250   107840724.794 6
  26782158.844          41.000   106469879.324 7  26782160.325          44.000
 125968882.168 8                  23971055.660
        49.000                                    94067782.463 8  23971058.978
        50.250   102247549.973 8  23971057.946          52.750    96521703.673 8
  23971056.525          51.250    95294746.642 8  23971057.586          53.750
 140359671.687 6                  26709545.124
        36.750                                   104814100.607 6  26709550.884
        38.250   113928345.126 6  26709547.968          38.250   107548368.435 6
  26709547.791          38.000   106181239.595 6  26709549.027          41.250
 143566001.294 6                  27319683.641
        37.250                                   107208481.388 6  27319690.442
        40.750   116530907.254 6  27319686.812          40.250   110005204.722 6
  27319687.726          40.500   108606851.629 7  27319688.840          43.750
 128557768.424 7                  24463698.020
        47.250                                    96001028.571 8  24463702.148
        48.000   104348898.052 8  24463698.848          50.500    98505386.072 8
  24463699.802          49.500    97253209.894 8  24463700.899          51.750
 111851171.864 8  87156874.848 7  21284523.490    21284522.921    21284523.012
        48.000          45.000    21284523.020


 115356831.898 7  89888522.586 7  21951653.308    21951656.706    21951653.076
        44.750          43.000    21951657.104    86143181.304 7  21951657.421
        47.250

 125598451.422 6  97687688.448 5  23528812.420    23528822.046    23528812.903
        41.000          30.750    23528821.719
                                                                  94339396.389 6
  23528810.314          38.250
 122736883.124 6  95639165.671 6  23356049.524    23356054.680    23356048.787
        40.250          38.000    23356054.975    91654196.494 7  23356054.616
        43.500

 139876232.058 6                  26617548.604
        40.000                                   104453098.043 6  26617553.889
        41.250   113535951.997 7  26617551.922          42.500   107177945.143 7
  26617551.432          42.750   105815530.167 7  26617552.851          45.000
 125798083.986 6  98024503.611 5  23938571.459    23938573.797    23938571.191
        40.000          33.750    23938574.835


 120650473.913 7  93839267.975 5  22593942.809    22593949.288    22593942.657
        45.000          34.750    22593949.552
                                                                  90591034.334 6
  22593935.699          40.250
 129685174.882 6 100866294.502 5  24302942.497                    24302942.305
        39.000          31.750    24302949.775


 107758810.581 6  83812383.114 6  20151410.744    20151417.378    20151410.511
        41.750          40.250    20151416.810


 106944194.216 8                  20062437.124                    20062436.856
        48.500


 110981109.222 8  86318678.482 7  20768584.403    20768589.005    20768584.711
        51.000          43.000    20768588.961
                                                                  83272213.362 7
  20768576.776          46.500
 120636823.070 7  94002753.20544  22956408.139    22956409.990    22956407.674
        42.500          26.250


 105715933.399 8  82376164.71947  20117016.374    20117013.753    20117015.091
        50.250          46.750


 128180312.734 5  99695745.476 4  23978761.259                    23978761.000
        32.750          28.250    23978774.189


 24  1  7  0  2 15.0000000  0 26E26G12G22R21G24G11G14E04E21E19E15E13
                                G17G06R22G30E27G15R09R02R20R10R11G13
                                G19R01
 132854760.851 7                  25281393.709
        44.500                                    99209819.390 7  25281397.228
        44.750   107836729.323 7  25281396.643          47.750   101797882.999 7
  25281394.923          45.750   100503855.768 8  25281395.912          48.250
 132512162.069 5 103256248.86144  25216226.752    25216230.723    25216226.305
        35.500          24.500


 113478028.696 8  88424508.42846  21594125.613    21594124.504    21594124.768
        48.750          38.750


 106431927.789 8  82780543.647 7  19889326.789    19889332.545    19889327.088
        51.750          47.000    19889332.474
                                                                  79746924.549 8
  19889318.238          49.000
 116190852.131 7  90538362.808 7  22110368.877    22110372.119    22110368.596
        44.250          42.750    22110372.669    86765942.741 7  22110371.988
        47.500

 128512355.234 6 100139536.676 6  24455079.515    24455085.046    24455079.149
        37.000          37.750    24455084.854    95967077.514 6  24455089.284
        41.500                                                   128512353.250 6
  24455079.890          37.250
 116140085.776 7  90498840.826 7  22100698.623    22100698.935    22100698.355
        45.250          44.000    22100699.168    86728095.428 7  22100702.874
        47.750                                                   116140098.781 7
  22100698.724          46.000
 140747453.878 6                  26783340.680
        39.000                                   105103666.370 6  26783345.899
        40.750   114243101.595 7  26783343.797          42.500   107845492.689 6
  26783342.851          40.750   106474586.604 7  26783344.400          43.750
 125970866.682 8                  23971433.367
        49.000                                    94069264.425 8  23971436.614
        50.000   102249160.792 8  23971435.612          53.000    96523224.288 8
  23971434.170          51.250    95296247.930 8  23971435.217          53.750
 140396627.520 6                  26716577.956
        37.000                                   104841697.452 6  26716583.210
        38.000   113958341.717 6  26716580.849          38.750   107576685.222 6
  26716580.274          38.250   106209196.412 6  26716581.568          41.250
 143597370.491 6                  27325652.951
        37.250                                   107231906.436 6  27325659.998
        40.750   116556369.247 6  27325655.965          40.500   110029240.857 6
  27325657.049          40.750   108630582.221 7  27325658.262          43.750
 128552402.036 7                  24462676.695
        47.500                                    95997021.224 8  24462680.898
        48.000   104344542.238 8  24462677.612          50.750    98501274.190 8
  24462678.575          49.250    97249150.280 8  24462679.677          51.750
 111883093.253 8  87181748.661 7  21290597.798    21290597.288    21290597.320
        48.250          44.750    21290597.368


 115312277.508 7  89853804.926 7  21943174.206    21943178.096    21943173.983
        44.750          43.000    21943178.646    86109910.236 7  21943178.998
        47.500

 125531947.741 6  97635963.447 5  23516353.847    23516363.674    23516354.639
        41.500          30.750    23516362.663
                                                                  94289444.273 6
  23516351.656          38.000
 122788286.956 6  95679220.581 6  23365831.044    23365836.432    23365830.307
        40.000          37.750    23365836.566    91692582.435 7  23365836.503
        43.500

 139900191.601 6                  26622108.105
        40.250                                   104470989.898 6  26622113.409
        41.250   113555399.681 7  26622111.808          43.000   107196303.738 7
  26622110.875          42.750   105833655.392 7  26622112.182          45.000
 125828530.550 6  98048228.215 5  23944364.117    23944367.457    23944363.854
        39.000          32.500    23944367.605


 120691720.842 7  93871348.867 5  22601665.983    22601673.464    22601666.310
        44.500          34.750    22601674.116
                                                                  90622004.769 6
  22601660.318          40.500
 129683139.675 6 100864711.607 5  24302559.903                    24302560.489
        38.750          32.750    24302567.636


 107790535.924 6  83837058.389 6  20157342.581    20157349.797    20157343.270
        41.750          40.000    20157350.892


 106954486.845 8                  20064368.130                    20064367.924
        48.500


 110944336.969 8  86290077.863 7  20761703.718    20761707.422    20761703.754
        51.750          43.000    20761707.364
                                                                  83244622.155 7
  20761695.363          46.500
 120679957.967 7  94036364.79344  22964616.417    22964618.496    22964615.948
        42.750          26.000


 105719558.222 8  82378989.27447  20117706.065    20117703.530    20117704.782
        50.250          46.500


 128215752.755 5  99723309.975 4  23985390.384                    23985390.956
        33.250          27.250    23985403.139


 24  1  7  0  2 30.0000000  0 26E26G12G22R21G24G11G14E04E21E19E15E13
                                G17G06R22G30E27G15R09R02R20R10R11G13
                                G19R01
 132813783.116 7                  25273595.658
        44.500                                    99179219.209 7  25273599.378
        44.750   107803468.240 7  25273598.681          47.500   101766484.551 7
  25273597.109          45.750   100472856.454 8  25273598.044          48.250
 132470879.061 5 103224080.35644  25208370.713    25208374.362    25208370.257
        35.750          24.500


 113492088.001 8  88435463.74146  21596801.005    21596799.833    21596800.160
        48.750          38.750


 106394582.415 8  82751497.277 7  19882347.983    19882353.628    19882348.189
        51.750          47.000    19882353.431
                                                                  79718942.631 8
  19882339.302          49.000
 116156071.290 7  90511260.895 7  22103750.292    22103753.386    22103750.015
        44.000          42.750    22103753.574    86739970.084 7  22103753.376
        47.500

 128457933.536 6 100097130.227 6  24444723.933    24444728.489    24444723.571
        37.500          38.250    24444728.815    95926438.019 6  24444733.295
        41.500                                                   128457931.535 6
  24444724.370          37.250
 116166501.523 7  90519424.525 7  22105725.247    22105725.748    22105724.984
        45.000          44.000    22105725.963    86747821.477 7  22105729.745
        47.750                                                   116166514.525 7
  22105725.380          45.500
 140753772.107 6                  26784542.896
        38.750                                   105108384.556 6  26784548.240
        40.750   114248230.057 7  26784546.044          42.500   107850333.966 6
  26784545.210          41.000   106479366.338 7  26784546.678          44.000
 125972873.197 8                  23971815.085
        49.000                                    94070762.814 8  23971818.323
        50.000   102250789.468 8  23971817.384          52.750    96524761.766 8
  23971815.959          51.000    95297765.865 8  23971817.020          53.750
 140433609.633 6                  26723614.722
        36.750                                   104869313.979 6  26723620.419
        37.750   113988359.682 6  26723618.434          38.750   107605022.176 6
  26723617.783          38.500   106237173.153 6  26723619.059          41.250
 143628813.703 6                  27331636.569
        37.000                                   107255386.739 6  27331643.528
        41.000   116581891.339 6  27331639.571          40.500   110053333.700 6
  27331640.771          41.000   108654368.795 7  27331641.796          44.000
 128547145.842 7                  24461676.444
        47.500                                    95993096.170 8  24461680.728
        48.000   104340275.867 8  24461677.312          50.750    98497246.743 8
  24461678.329          49.250    97245174.031 8  24461679.448          51.750
 111915068.332 8  87206664.311 7  21296682.574    21296681.907    21296682.096
        48.250          44.750    21296682.207


 115267803.139 7  89819149.647 7  21934711.412    21934714.761    21934711.189
        45.000          42.750    21934715.476    86076698.939 7  21934715.681
        47.500

 125465471.528 6  97584259.763 5  23503900.984    23503910.087    23503901.610
        41.750          30.750    23503909.340
                                                                  94239512.795 6
  23503898.055          37.750
 122839744.502 6  95719317.334 6  23375623.256    23375628.702    23375622.519
        39.750          37.250    23375628.237    91731008.479 7  23375628.487
        43.250

 139924167.775 6                  26626670.374
        40.000                                   104488894.170 6  26626675.915
        41.000   113574860.856 7  26626673.988          42.750   107214675.075 7
  26626673.395          42.500   105851793.197 7  26626674.679          45.000
 125859046.255 6  98072006.724 5  23950172.122    23950174.371    23950171.859
        38.500          32.000    23950175.520


 120733041.474 7  93903487.112 5  22609404.969    22609411.671    22609404.888
        44.750          34.000    22609411.228
                                                                  90653030.547 6
  22609398.074          40.250
 129681269.883 6 100863257.353 5  24302210.072                    24302209.674
        38.500          31.750    24302217.890


 107822432.150 7  83861866.581 6  20163307.880    20163314.907    20163308.206
        42.000          40.000    20163315.118


 106964883.268 8                  20066318.376                    20066318.112
        48.500


 110907606.637 8  86261509.839 7  20754829.576    20754833.780    20754829.822
        51.500          42.500    20754833.525
                                                                  83217062.401 7
  20754821.689          46.500
 120723140.173 7  94070013.25144  22972834.027    22972835.802    22972833.558
        43.000          26.000


 105723291.770 8  82381898.54947  20118416.479    20118413.947    20118415.196
        50.250          46.500


 128251282.269 5  99750944.007 4  23992037.676                    23992037.860
        32.750          26.000    23992048.451


 24  1  7  0  2 45.0000000  0 26E26G12G22R21G24G11G14E04E21E19E15E13
                                G17G06R22G30E27G15R09R02R20R10R11G13
                                G19R01
 132772853.411 7                  25265807.133
        44.500                                    99148654.886 7  25265810.764
        44.750   107770246.120 8  25265810.027          48.000   101735122.897 7
  25265808.410          46.000   100441893.464 8  25265809.319          48.500
 132429590.478 6 103191907.51344  25200513.576    25200517.551    25200513.129
        36.000          24.500


 113506177.510 8  88446442.59046  21599482.110    21599480.938    21599481.261
        48.750          38.750


 106357404.545 8  82722581.209 7  19875400.195    19875406.059    19875400.526
        51.750          47.500    19875406.188
                                                                  79691086.220 8
  19875391.679          49.250
 116121395.155 7  90484240.580 7  22097151.264    22097154.675    22097150.987
        44.000          43.000    22097155.377    86714075.623 7  22097154.580
        47.750

 128403510.091 6 100054722.403 6  24434367.499    24434371.630    24434367.133
        36.750          37.750    24434371.550    95885797.211 6  24434376.628
        41.750                                                   128403508.091 6
  24434367.216          36.500
 116192960.024 7  90540041.536 7  22110759.968    22110760.630    22110759.709
        45.250          44.000    22110760.527    86767579.441 8  22110764.693
        48.000                                                   116192973.026 7
  22110759.976          45.250
 140760186.872 6                  26785763.752
        38.750                                   105113174.819 6  26785768.456
        40.500   114253436.850 7  26785766.712          42.500   107855249.177 6
  26785766.218          41.250   106484219.072 7  26785767.359          44.000
 125974902.606 8                  23972201.259
        48.750                                    94072278.301 8  23972204.488
        50.000   102252436.731 8  23972203.468          53.000    96526316.784 8
  23972202.079          51.250    95299301.116 8  23972203.190          53.750
 140470618.512 6                  26730658.324
        37.250                                   104896950.454 6  26730662.894
        37.500   114018399.315 6  26730660.927          38.750   107633379.592 6
  26730660.651          38.500   106265170.097 6  26730661.627          41.000
 143660331.501 6                  27337634.205
        36.750                                   107278922.757 6  27337640.988
        40.750   116607473.966 6  27337637.215          41.000   110077483.700 6
  27337638.406          41.250   108678211.802 7  27337639.373          44.000
 128542000.693 7                  24460697.445
        47.250                                    95989254.040 8  24460701.613
        48.000   104336099.627 8  24460698.179          50.750    98493304.375 8
  24460699.258          49.250    97241281.782 8  24460700.350          51.750
 111947097.517 8  87231622.132 7  21302777.489    21302776.863    21302777.011
        48.500          45.250    21302777.426


 115223410.038 7  89784557.662 7  21926263.292    21926267.016    21926263.064
        44.750          43.250    21926267.803    86043548.311 7  21926267.838
        47.500

 125399023.893 6  97532578.299 5  23491452.515    23491462.525    23491454.008
        41.250          30.250    23491462.234
                                                                  94189602.805 6
  23491450.212          37.500
 122891256.325 6  95759456.378 6  23385425.934    23385430.910    23385425.197
        40.500          37.750    23385431.102    91769475.057 7  23385430.762
        43.250

 139948161.419 6                  26631236.437
        40.000                                   104506811.507 6  26631241.737
        41.000   113594336.216 7  26631240.042          43.000   107233059.818 7
  26631239.190          42.750   105869944.237 7  26631240.546          45.000
 125889631.436 6  98095839.328 5  23955991.948    23955994.094    23955991.680
        38.000          32.000    23955994.318


 120774436.410 7  93935683.137 5  22617155.891    22617163.430    22617156.240
        44.000          35.250    22617163.130
                                                                  90684112.098 6
  22617149.859          40.250
 129679566.220 6 100861932.301 5  24301889.738                    24301890.127
        38.000          32.000    24301899.439


 107854499.484 7  83886807.849 6  20169304.513    20169311.532    20169304.763
        42.000          40.000    20169311.644


 106975384.627 8                  20068288.542                    20068288.287
        48.500


 110870919.312 8  86232975.276 7  20747963.811    20747968.149    20747964.155
        51.000          42.750    20747968.257
                                                                  83189534.918 7
  20747956.237          46.750
 120766370.061 7  94103698.87344  22981060.310    22981062.022    22981059.841
        42.750          26.000


 105727134.597 8  82384892.97347  20119147.794    20119145.192    20119146.511
        50.500          46.500


 128286901.437 5                  23998700.246                    23998699.777
        32.000


 24  1  7  0  3  0.0000000  0 26E26G12G22R21G24G11G14E04E21E19E15E13
                                G17G06R22G30E27G15R09R02R20R10R11G13
                                G19R01
 132731974.761 7                  25258028.248
        44.500                                    99118128.704 7  25258031.682
        44.750   107737065.459 7  25258030.932          47.750   101703800.360 7
  25258029.426          46.250   100410969.104 8  25258030.295          48.500
 132388299.153 6 103159732.52044  25192656.098    25192660.078    25192655.647
        36.000          24.750


 113520300.068 8  88457447.19046  21602169.608    21602168.319    21602168.759
        49.000          38.750


 106320397.416 8  82693797.930 7  19868484.664    19868490.357    19868484.914
        51.750          47.250    19868490.313
                                                                  79663357.738 8
  19868475.848          49.000
 116086826.852 7  90457304.291 7  22090573.296    22090576.448    22090573.019
        44.000          42.750    22090576.649    86688261.682 8  22090576.402
        48.000

 128349088.058 6 100012315.705 6  24424011.533    24424015.530    24424011.144
        37.500          37.750    24424015.539    95845157.459 6  24424020.421
        41.750                                                   128349086.058 6
  24424011.684          37.000
 116219464.124 7  90560694.082 7  22115803.729    22115804.198    22115803.475
        45.250          44.250    22115804.619    86787371.471 8  22115808.298
        48.000                                                   116219477.129 7
  22115803.781          45.500
 140766700.870 6                  26787003.239
        39.250                                   105118039.184 6  26787007.930
        40.250   114258724.186 7  26787006.343          42.500   107860240.423 6
  26787005.969          41.750   106489146.874 7  26787006.905          44.000
 125976957.773 8                  23972592.203
        49.000                                    94073813.029 8  23972595.499
        50.000   102254104.902 8  23972594.582          52.750    96527891.540 8
  23972593.135          51.250    95300855.857 8  23972594.245          53.750
 140507656.738 6                  26737705.609
        36.750                                   104924608.851 6  26737710.729
        37.500   114048462.810 6  26737708.865          38.500   107661759.503 6
  26737708.531          38.500   106293189.252 6  26737709.731          41.000
 143691926.552 6                  27343646.466
        37.250                                   107302516.437 6  27343653.361
        41.000   116633119.280 6  27343649.346          40.500   110101692.873 6
  27343650.309          41.500   108702113.228 7  27343651.705          44.250
 128536969.442 7                  24459739.958
        47.500                                    95985496.962 8  24459744.121
        48.000   104332015.833 8  24459740.852          50.750    98489449.282 8
  24459741.873          49.500    97237475.695 8  24459742.912          51.750
 111979183.371 8  87256624.097 7  21308883.323    21308882.563    21308882.845
        48.500          45.000    21308882.666


 115179101.352 7  89750031.485 7  21917831.858    21917835.373    21917831.626
        44.750          43.250    21917836.227    86010460.729 7  21917835.980
        47.500

 125332608.132 6  97480921.651 5  23479010.962    23479020.082    23479011.660
        41.000          30.500    23479019.917
                                                                  94139716.725 6
  23479008.207          37.250
 122942824.971 6  95799639.685 6  23395238.984    23395244.140    23395238.247
        40.500          37.500    23395244.609    91807984.069 7  23395244.103
        43.500

 139972175.439 6                  26635806.265
        40.000                                   104524744.032 6  26635811.604
        40.750   113613828.096 7  26635809.498          42.750   107251460.158 7
  26635809.227          42.750   105888110.668 7  26635810.261          44.750
 125920288.622 6  98119727.990 5  23961825.576    23961828.125    23961825.299
        37.250          32.750    23961828.988


 120815908.433 7  93967939.138 5  22624922.549    22624929.600    22624922.638
        44.000          34.500    22624929.336
                                                                  90715251.544 6
  22624916.579          40.250
 129678031.327 6 100860738.496 5  24301601.822                    24301602.716
        39.000          33.000    24301609.582


 107886740.235 6  83911884.000 6  20175333.104    20175340.516    20175333.913
        41.500          40.000    20175341.218


 106985993.571 8                  20070279.056                    20070278.506
        48.500


 110834278.251 8  86204476.720 7  20741106.992    20741111.362    20741107.328
        51.250          43.000    20741111.130
                                                                  83162042.154 7
  20741098.873          46.250
 120809649.890 7  94137423.40344  22989296.358    22989297.798    22989295.898
        42.750          25.500


 105731089.530 8  82387974.75647  20119900.381    20119897.782    20119899.098
        50.500          46.500


 128322612.595 5  99806423.086 4  24005380.626                    24005381.153
        32.000          25.750    24005385.529


 24  1  7  0  3 15.0000000  0 26E26G12G22R21G24G11G14E04E21E19E15E13
                                G17G06R22G30E27G15R09R02R20R10R11G13
                                G19R01
 132691140.933 7                  25250257.658
        44.750                                    99087635.985 7  25250261.253
        45.000   107703921.170 8  25250260.373          48.000   101672512.173 7
  25250258.943          46.250   100380078.652 8  25250259.812          48.500
 132346998.537 6 103127549.30715  25184797.565    25184800.703    25184797.141
        36.250          33.750    25184801.370


 113534449.244 8  88468472.53146  21604862.069    21604860.745    21604861.229
        48.750          38.750


 106283554.836 8  82665142.615 7  19861599.512    19861605.336    19861599.924
        52.000          47.500    19861605.381
                                                                  79635752.549 8
  19861590.894          49.000
 116052360.218 7  90430447.211 7  22084014.676    22084017.542    22084014.395
        44.250          42.500    22084017.761    86662523.663 8  22084017.903
        48.250

 128294661.273 6  99969905.291 6  24413653.349    24413658.361    24413652.956
        37.000          37.750    24413658.527    95804514.169 7  24413663.163
        42.000                                                   128294659.281 6
  24413654.077          37.250
 116246007.347 7  90581377.123 7  22120854.667    22120855.248    22120854.413
        45.250          44.250    22120855.619    86807192.713 8  22120859.334
        48.000                                                   116246020.358 7
  22120854.853          45.500
 140773307.498 6                  26788260.479
        39.750                                   105122972.722 6  26788265.215
        40.500   114264086.727 7  26788263.583          43.000   107865302.665 7
  26788263.303          42.000   106494144.767 7  26788264.056          44.250
 125979032.283 8                  23972987.100
        49.250                                    94075362.194 8  23972990.212
        50.000   102255788.767 8  23972989.331          53.000    96529481.117 8
  23972987.920          51.250    95302425.228 8  23972988.994          53.750
 140544717.562 6                  26744757.736
        36.750                                   104952284.130 6  26744763.407
        37.250   114078544.635 6  26744761.578          38.750   107690156.750 6
  26744761.115          38.500   106321225.513 6  26744762.162          41.000
 143723592.107 6                  27349672.883
        37.500                                   107326162.794 6  27349679.045
        40.750   116658821.858 6  27349675.723          41.250   110125956.101 6
  27349676.262          41.500   108726068.022 7  27349677.564          44.250
 128532045.631 7                  24458803.003
        47.750                                    95981820.111 8  24458807.122
        48.000   104328019.248 8  24458803.782          51.000    98485676.514 8
  24458804.861          49.250    97233750.886 8  24458805.931          51.750
 112011318.836 8  87281664.727 7  21314998.637    21314997.599    21314998.155
        48.500          45.000    21314997.742


 115134871.025 7  89715566.348 7  21909414.394    21909418.619    21909414.162
        44.500          43.250    21909419.022    85977431.655 7  21909419.178
        47.500

 125266218.126 6  97429285.043 5  23466574.708    23466583.220    23466574.529
        41.500          30.250    23466583.126
                                                                  94089850.004 6
  23466571.143          36.500
 122994443.640 6  95839861.999 6  23405061.412    23405066.876    23405060.670
        40.000          37.750    23405068.132    91846530.449 7  23405066.517
        43.250

 139996203.381 6                  26640378.708
        40.500                                   104542686.984 6  26640383.600
        40.750   113633331.309 7  26640382.017          43.250   107269871.171 7
  26640381.250          42.500   105906287.650 7  26640382.602          44.750
 125951011.032 6  98143667.537 5  23967671.703    23967674.774    23967671.404
        37.000          33.500    23967675.154


 120857450.958 7  94000249.979 5  22632702.804    22632709.081    22632702.571
        44.750          34.500    22632709.309
                                                                  90746443.937 6
  22632696.217          40.250
 129676658.825 6 100859670.995 5  24301345.189                    24301345.807
        40.250          32.750    24301353.612


 107919147.502 6  83937089.647 6  20181393.984    20181400.887    20181393.850
        41.750          39.750    20181401.236


 106996703.942 8                  20072287.989                    20072287.587
        48.500


 110797677.144 8  86176009.223 7  20734257.927    20734261.926    20734258.075
        51.500          43.000    20734262.302
                                                                  83134579.360 7
  20734249.741          46.250
 120852972.887 7  94171181.57744  22997540.446    22997541.993    22997539.986
        42.750          25.250


 105735149.872 8  82391138.67547  20120673.075    20120670.423    20120671.797
        50.500          46.750


 128358408.625 5  99834264.484 4  24012078.551                    24012078.095
        32.250          26.000    24012089.098


 24  1  7  0  3 30.0000000  0 26E26G12G22R21G24G11G14E04E21E19E15E13
                                G17G06R22G30E27G15R09R02R20R10R11G13
                                G19R01
 132650359.516 7                  25242497.329
        44.500                                    99057182.405 7  25242500.661
        44.750   107670819.423 7  25242499.807          47.750   101641264.144 7
  25242498.360          46.250   100349227.848 8  25242499.313          48.500
 132305695.965 6 103095365.545 5  25176937.711    25176940.913    25176937.273
        36.750          33.750    25176941.950


 113548632.516 8  88479524.44446  21607561.098    21607559.702    21607560.253
        49.000          38.500


 106246884.509 8  82636621.305 7  19854746.981    19854752.567    19854747.173
        52.250          47.500    19854752.143
                                                                  79608276.427 8
  19854738.072          49.000
 116018002.861 7  90403675.294 7  22077476.513    22077479.549    22077476.227
        44.000          42.500    22077479.862    86636867.250 8  22077479.798
        48.250

 128240237.439 6  99927497.184 6  24403297.579    24403301.728    24403297.199
        37.250          37.750    24403302.654    95763873.087 6  24403306.498
        41.750                                                   128240235.435 6
  24403297.582          37.500
 116272597.081 7  90602096.393 7  22125914.543    22125915.012    22125914.293
        45.250          44.000    22125915.182    86827048.681 8  22125919.143
        48.000                                                   116272610.083 7
  22125914.586          45.500
 140780014.047 6                  26789537.009
        39.750                                   105127980.873 6  26789541.771
        40.500   114269530.364 7  26789539.943          42.750   107870441.458 7
  26789539.390          42.000   106499218.240 7  26789540.219          44.250
 125981133.534 8                  23973386.874
        49.000                                    94076931.333 8  23973390.049
        50.000   102257494.344 8  23973389.173          52.750    96531091.191 8
  23973387.757          51.250    95304014.835 8  23973388.827          53.750
 140581808.055 6                  26751815.873
        36.500                                   104979981.557 6  26751821.490
        37.000   114108650.548 6  26751819.626          38.500   107718576.719 6
  26751819.077          38.500   106349284.210 6  26751820.205          40.750
 143755335.323 6                  27355712.657
        37.000                                   107349867.132 6  27355719.061
        40.250   116684587.431 6  27355715.904          41.000   110150278.815 6
  27355716.997          41.250   108750081.548 7  27355718.026          44.000
 128527236.636 7                  24457887.933
        47.500                                    95978229.002 7  24457891.935
        47.750   104324115.862 8  24457888.622          50.750    98481991.727 8
  24457889.710          49.500    97230112.938 8  24457890.789          51.750
 112043511.135 8  87306749.639 7  21321124.485    21321123.501    21321124.007
        48.500          44.750    21321124.046


 115090726.743 7  89681168.266 7  21901014.552    21901018.209    21901014.329
        45.000          43.500    21901018.996    85944466.830 7  21901018.816
        47.500

 125199861.835 6  97377674.661 4  23454143.586    23454152.406    23454143.657
        41.750          29.750    23454153.936
                                                                  94040008.598 6
  23454140.183          36.500
 123046119.466 6  95880128.850 6  23414895.375    23414900.347    23414894.633
        40.250          37.750    23414900.995    91885119.500 7  23414900.762
        43.500

 140020252.658 6                  26644955.054
        40.250                                   104560645.843 6  26644959.959
        40.250   113652851.804 7  26644958.408          43.250   107288298.532 7
  26644957.739          42.500   105924480.761 7  26644959.006          44.500
 125981805.646 6  98167663.322 5  23973530.885    23973534.959    23973530.568
        36.000          33.500    23973535.214


 120899071.375 7  94032621.398 5  22640495.717    22640503.216    22640496.603
        43.500          34.000    22640503.064
                                                                  90777694.806 6
  22640490.732          40.250
 129675455.795 6 100858735.345 5  24301119.759                    24301119.956
        40.500          32.500    24301128.821


 107951728.524 6  83962430.471 6  20187486.312    20187493.644    20187486.670
        41.500          39.000    20187494.346


 107007523.243 8                  20074317.715                    20074317.393
        48.500


 110761123.778 8  86147578.840 7  20727417.443    20727421.486    20727417.385
        51.500          42.750    20727421.093
                                                                  83107152.384 7
  20727409.065          46.250
 120896346.056 7  94204978.83544  23005793.700    23005795.810    23005793.240
        42.250          24.500


 105739322.856 8  82394390.36547  20121467.113    20121464.470    20121465.830
        50.500          46.500


 128394296.606 5  99862177.321 4  24018791.505                    24018791.067
        32.250          25.750    24018799.118


 24  1  7  0  3 45.0000000  0 26E26G12G22R21G24G11G14E04E21E19E15E13
                                G17G06R22G30E27G15R09R02R20R10R11G13
                                G19R01
 132609624.766 7                  25234745.583
        44.250                                    99026763.669 7  25234748.990
        44.750   107637755.553 7  25234748.239          47.500   101610051.867 7
  25234746.716          46.250   100318412.342 8  25234747.706          48.500
 132264385.533 6 103063175.692 5  25169075.681    25169079.768    25169075.239
        36.250          34.000    25169080.528


 113562843.902 8  88490598.26346  21610265.297    21610264.027    21610264.452
        49.000          38.500


 106210380.777 8  82608229.555 7  19847925.291    19847930.931    19847925.550
        52.250          47.500    19847930.998
                                                                  79580925.123 8
  19847916.489          49.000
 115983749.097 7  90376984.094 7  22070958.223    22070961.169    22070957.942
        44.000          42.250    22070961.429    86611288.195 8  22070961.383
        48.000

 128185810.879 6  99885086.959 6  24392939.985    24392944.729    24392939.605
        37.250          37.250    24392944.712    95723229.962 6  24392949.728
        41.500                                                   128185808.882 6
  24392939.761          37.250
 116299227.373 7  90622847.268 7  22130982.133    22130982.607    22130981.874
        45.000          44.000    22130982.611    86846934.949 7  22130986.680
        47.500                                                   116299240.384 7
  22130982.118          45.500
 140786814.384 6                  26790830.894
        39.750                                   105133059.063 6  26790835.697
        40.750   114275050.134 7  26790834.150          43.000   107875652.130 7
  26790833.235          42.000   106504362.670 7  26790834.256          44.250
 125983255.607 8                  23973790.772
        48.750                                    94078516.020 8  23973793.862
        50.000   102259216.823 8  23973792.933          53.000    96532717.215 8
  23973791.575          51.250    95305620.192 8  23973792.627          53.750
 140618921.994 5                  26758878.339
        35.750                                   105007696.504 6  26758884.010
        37.250   114138775.490 6  26758882.195          38.500   107747014.651 6
  26758881.696          38.250   106377360.650 6  26758882.748          40.750
 143787150.033 6                  27361766.844
        36.750                                   107373624.870 6  27361773.560
        40.500   116710411.057 6  27361769.393          40.750   110174656.302 6
  27361770.888          41.500   108774149.159 7  27361772.101          44.000
 128522536.507 7                  24456993.419
        47.250                                    95974719.190 8  24456997.488
        48.000   104320300.839 8  24456994.310          50.750    98478390.343 8
  24456995.304          49.500    97226557.340 8  24456996.360          51.750
 112075754.134 8  87331874.065 7  21327260.037    21327259.219    21327259.555
        48.500          45.000    21327259.621


 115046662.910 7  89646832.877 7  21892629.301    21892633.138    21892629.073
        45.000          43.250    21892633.719    85911562.091 7  21892633.794
        47.250

 125133533.594 6  97326086.052 4  23441717.854    23441726.652    23441717.876
        41.750          29.250    23441727.551
                                                                  93990188.292 6
  23441714.768          36.000
 123097846.172 6  95920435.354 6  23424738.640    23424743.456    23424737.894
        40.250          37.500    23424744.158    91923746.533 7  23424743.652
        43.250

 140044317.308 6                  26649534.687
        40.250                                   104578616.199 6  26649539.454
        40.500   113672384.810 7  26649538.010          43.500   107306737.686 7
  26649537.153          42.500   105942685.518 7  26649538.295          44.750
 126012666.064 6  98191710.381 5  23979404.763    23979407.468    23979404.446
        36.500          34.000    23979408.076


 120940763.544 7  94065048.599 5  22648304.542    22648311.119    22648304.081
        44.000          34.750    22648311.110
                                                                  90808999.540 6
  22648297.781          40.250
 129674416.301 6 100857926.873 5  24300925.336                    24300925.457
        41.000          33.000    24300935.332


 107984476.344 6  83987900.994 6  20193610.641    20193617.749    20193611.025
        41.750          39.750    20193618.773


 107018445.506 8                  20076366.844                    20076366.522
        48.750


 110724612.320 8  86119181.097 7  20720584.812    20720588.936    20720584.990
        51.750          42.750    20720588.569
                                                                  83079756.879 7
  20720576.679          46.250
 120939763.068 7  94238810.26344  23014055.835    23014057.847    23014055.384
        42.250          24.500


 105743602.356 8  82397725.05547  20122281.434    20122278.818    20122280.156
        50.500          46.500


 128430269.700 5  99890156.364 4  24025517.562                    24025520.585
        31.000          26.250    24025530.380


 24  1  7  0  4  0.0000000  0 26E26G12G22R21G24G11G14E04E21E19E15E13
                                G17G06R22G30E27G15R09R02R20R10R11G13
                                G19R01
 132568940.290 7                  25227003.521
        44.250                                    98996382.476 7  25227007.036
        44.750   107604732.490 7  25227006.272          47.500   101578878.113 7
  25227004.722          46.250   100287634.868 8  25227005.657          48.500
 132223070.540 6 103030982.207 5  25161214.402    25161218.037    25161213.964
        37.000          34.500    25161217.952


 113577086.712 8  88501696.56846  21612975.380    21612974.423    21612974.535
        48.750          38.500


 106174047.325 8  82579970.242 7  19841135.528    19841141.186    19841135.792
        52.250          47.250    19841140.887
                                                                  79553701.415 8
  19841126.709          49.250
 115949602.583 7  90350376.465 7  22064460.395    22064463.140    22064460.114
        44.250          42.250    22064463.833    86585789.225 8  22064463.604
        48.250

 128131385.341 6  99842677.493 6  24382582.673    24382587.703    24382582.311
        37.000          36.500    24382587.605    95682587.592 6  24382592.568
        41.250                                                   128131383.354 6
  24382583.124          37.250
 116325901.625 7  90643632.417 7  22136058.184    22136058.559    22136057.930
        45.250          44.000    22136058.952    86866854.043 7  22136062.654
        47.750                                                   116325914.632 7
  22136058.102          45.500
 140793711.816 6                  26792143.546
        39.750                                   105138209.764 6  26792148.264
        40.750   114280648.716 7  26792146.583          42.750   107880937.189 7
  26792146.062          42.000   106509580.550 7  26792146.818          44.500
 125985401.916 8                  23974199.173
        48.750                                    94080118.813 8  23974202.326
        49.750   102260958.979 8  23974201.369          52.750    96534361.812 8
  23974200.020          51.250    95307243.886 8  23974201.041          53.750
 140656062.432 6                  26765946.381
        36.000                                   105035431.236 6  26765951.770
        36.750   114168921.953 6  26765949.570          37.750   107775472.917 6
  26765949.022          38.250   106405457.151 6  26765950.320          40.500
 143819039.353 6                  27367835.433
        37.000                                   107397438.326 6  27367842.123
        40.250   116736295.263 6  27367838.148          40.500   110199090.978 6
  27367839.496          41.750   108798273.225 7  27367840.440          44.000
 128517948.658 7                  24456120.409
        47.000                                    95971293.214 8  24456124.411
        48.000   104316576.948 8  24456121.192          50.500    98474874.993 8
  24456122.218          49.500    97223086.677 8  24456123.292          51.750
 112108050.889 8  87357040.369 7  21333406.022    21333405.172    21333405.544
        48.500          44.750    21333405.699


 115002683.293 7  89612563.092 7  21884260.439    21884264.123    21884260.207
        45.250          43.750    21884264.700    85878720.234 7  21884264.744
        47.500

 125067237.262 7  97274522.277 4  23429298.774    23429307.711    23429298.560
        42.500          29.500    23429306.415
                                                                  93940391.911 6
  23429295.036          36.000
 123149626.843 6  95960783.866 6  23434592.127    23434597.225    23434591.394
        40.000          37.250    23434598.083    91962413.885 7  23434597.528
        43.250

 140068400.761 6                  26654117.737
        40.500                                   104596600.586 6  26654122.513
        40.750   113691933.051 7  26654120.836          43.000   107325191.226 7
  26654120.324          42.750   105960904.481 7  26654121.188          44.750
 126043595.251 6  98215811.016 5  23985290.544    23985293.240    23985290.205
        37.000          35.250    23985293.038


 120982530.759 7  94097534.212 5  22656124.706    22656132.960    22656125.556
        43.500          34.000    22656132.898
                                                                  90840360.655 6
  22656119.747          40.250
 129673543.633 6 100857248.160 5  24300761.436                    24300761.592
        40.750          33.000    24300770.828


 108017394.381 6  84013503.923 6  20199766.775    20199773.454    20199766.699
        41.750          39.250    20199773.258


 107029474.308 8                  20078435.808                    20078435.329
        48.500


 110688146.635 8  86090818.938 7  20713760.291    20713764.679    20713760.635
        51.000          42.250    20713764.688
                                                                  83052395.705 7
  20713752.485          46.500
 120983226.815 7  94272678.10544  23022326.797    23022328.366    23022326.341
        42.250          24.250


 105747991.539 8  82401145.21247  20123116.772    20123114.075    20123115.489
        50.500          46.500


 128466331.034 5  99918204.155 4  24032267.971                    24032266.956
        32.500          24.750    24032278.866


 24  1  7  0  4 15.0000000  0 26E26G12G22R21G24G11G14E04E21E19E15E13
                                G17G06R22G30E27G15R09R02R20R10R11G13
                                G19R01
 132528303.286 7                  25219270.396
        44.500                                    98966036.733 7  25219274.040
        44.750   107571747.964 8  25219273.214          48.000   101547740.740 7
  25219271.682          46.000   100256893.310 8  25219272.617          48.500
 132181748.077 6 102998782.970 5  25153351.350    25153354.658    25153350.908
        37.000          34.500    25153354.765


 113591358.042 8  88512817.09546  21615691.351    21615690.250    21615690.511
        48.500          38.500


 106137881.314 8  82551841.157 7  19834377.042    19834382.611    19834377.257
        52.250          47.250    19834382.714
                                                                  79526603.153 8
  19834368.151          49.250
 115915560.558 7  90323850.260 7  22057982.530    22057985.199    22057982.249
        44.000          42.250    22057985.646    86560368.288 8  22057985.556
        48.250

 128076958.056 6  99800266.686 6  24372225.869    24372230.197    24372225.512
        37.000          36.750    24372229.991    95641943.938 6  24372235.177
        40.750                                                   128076956.055 6
  24372226.194          36.750
 116352616.821 7  90664449.454 7  22141141.498    22141142.334    22141141.239
        44.500          44.000    22141142.454    86886803.703 7  22141146.420
        47.500                                                   116352629.822 7
  22141141.640          45.000
 140800703.171 6                  26793474.033
        40.000                                   105143430.602 6  26793478.773
        41.000   114286323.533 7  26793476.990          43.000   107886294.218 6
  26793476.508          41.750   106514869.483 7  26793477.243          44.250
 125987569.495 8                  23974611.623
        49.000                                    94081737.476 8  23974614.758
        50.000   102262718.387 8  23974613.837          53.250    96536022.708 8
  23974612.484          51.250    95308883.665 8  23974613.504          53.500
 140693226.099 6                  26773017.712
        36.000                                   105063183.310 6  26773023.704
        36.750   114199087.240 6  26773021.429          38.500   107803948.941 6
  26773021.086          37.750   106433571.198 6  26773022.384          40.250
 143851000.055 6                  27373916.943
        37.250                                   107421305.068 6  27373923.772
        40.000   116762237.383 6  27373920.172          41.250   110223580.335 6
  27373921.328          41.250   108822451.275 7  27373922.348          43.750
 128513470.040 7                  24455268.002
        47.250                                    95967948.819 7  24455272.116
        47.750   104312941.721 8  24455268.959          51.250    98471443.350 8
  24455270.030          49.250    97219698.657 8  24455271.015          51.500
 112140398.247 8  87382246.110 7  21339561.573    21339560.571    21339561.091
        48.250          44.500    21339560.714


 114958785.233 7  89578356.856 7  21875906.653    21875910.650    21875906.421
        44.750          44.000    21875911.432    85845939.274 7  21875911.083
        47.500

 125000970.096 7  97222981.227 4  23416883.794    23416892.569    23416884.442
        42.250          29.750    23416892.051
                                                                  93890617.465 5
  23416881.115          35.500
 123201458.220 6  96001171.925 6  23444455.369    23444460.203    23444454.632
        40.000          37.750    23444461.142    92001119.088 7  23444460.439
        43.250

 140092500.028 6                  26658703.507
        40.500                                   104614596.794 6  26658708.386
        40.500   113711494.138 7  26658707.063          43.750   107343656.895 7
  26658706.255          42.500   105979135.420 7  26658707.110          44.500
 126074589.741 6  98239962.537 5  23991188.565    23991191.547    23991188.221
        37.250          35.750    23991191.445


 121024369.875 7  94130075.725 5  22663959.969    22663968.192    22663960.684
        43.500          35.000    22663968.017
                                                                  90871775.739 6
  22663955.193          40.250
 129672834.754 6 100856696.830 5  24300629.411                    24300629.148
        41.500          33.250    24300636.783


 108050478.927 6  84039236.353 6  20205954.169    20205960.526    20205953.467
        41.500          39.250    20205960.888


 107040606.714 8                  20080524.110                    20080523.703
        48.500


 110651723.878 8  86062490.140 7  20706944.815    20706948.550    20706945.047
        51.750          42.250    20706948.576
                                                                  83025066.735 7
  20706936.418          46.500
 121026733.806 6  94306579.65144  23030605.730    23030607.478    23030605.274
        41.750          24.000


 105752487.327 8  82404648.43747  20123972.332    20123969.595    20123971.049
        50.250          46.500


 128502476.909 5                  24039027.210                    24039029.351
        31.750          24.500    24039036.611


 24  1  7  0  4 30.0000000  0 26E26G12G22R21G24G11G14E04E21E19E15E13
                                G17G06R22G30E27G15R09R02R20R10R11G13
                                G19R01
 132487718.118 7                  25211547.253
        44.500                                    98935729.699 7  25211550.817
        44.750   107538805.499 7  25211550.003          47.750   101516643.069 7
  25211548.458          46.250   100226190.957 8  25211549.456          48.500
 132140422.439 6 102966581.202 5  25145486.550    25145490.395    25145486.112
        37.500          35.000    25145491.370


 113605662.051 8  88523963.09146  21618413.269    21618412.276    21618412.429
        49.000          38.500


 106101887.340 8  82523845.892 7  19827650.485    19827656.138    19827650.976
        52.000          47.500    19827655.892
                                                                  79499633.809 8
  19827641.817          49.250
 115881627.418 7  90297408.884 7  22051525.446    22051527.891    22051525.169
        44.500          42.250    22051528.446    86535028.648 8  22051528.396
        48.250

 128022533.558 6  99757858.049 6  24361869.423    24361873.523    24361869.075
        37.750          37.500    24361873.970    95601302.327 6  24361878.700
        41.000                                                   128022531.559 6
  24361869.900          37.750
 116379377.060 7  90685301.596 7  22146233.935    22146234.695    22146233.681
        45.000          44.000    22146234.896    86906787.010 7  22146238.661
        47.500                                                   116379390.070 7
  22146234.019          45.250
 140807792.500 6                  26794823.021
        40.250                                   105148724.584 6  26794828.060
        41.250   114292077.865 7  26794825.852          42.750   107891726.319 6
  26794825.460          41.750   106520232.525 7  26794826.293          44.500
 125989762.490 8                  23975028.885
        49.000                                    94083375.127 8  23975032.114
        50.000   102264498.433 8  23975031.171          53.000    96537703.072 8
  23975029.799          51.250    95310542.674 8  23975030.789          53.500
 140730416.714 6                  26780095.559
        36.250                                   105090955.502 6  26780101.001
        37.000   114229274.437 6  26780098.471          38.250   107832445.636 6
  26780098.293          37.750   106461705.644 6  26780099.533          40.500
 143883036.047 6                  27380013.336
        37.000                                   107445228.055 6  27380019.972
        39.750   116788240.628 6  27380016.274          41.000   110248127.391 6
  27380017.309          41.000   108846686.295 7  27380018.585          43.250
 128509104.820 7                  24454437.382
        47.500                                    95964689.096 8  24454441.451
        48.000   104309398.539 8  24454438.263          51.000    98468098.587 8
  24454439.369          49.250    97216396.415 8  24454440.327          51.750
 112172799.928 8  87407494.180 7  21345727.200    21345726.287    21345726.722
        48.500          44.500    21345726.462


 114914973.189 7  89544217.650 7  21867569.779    21867573.544    21867569.551
        45.500          43.750    21867574.317    85813222.550 7  21867573.892
        47.250

 124934736.747 6  97171466.467 5  23404476.326    23404485.661    23404476.509
        41.750          30.000    23404484.431
                                                                  93840868.378 6
  23404473.517          36.250
 123253344.073 6  96041602.443 6  23454329.590    23454333.873    23454328.839
        40.750          36.750    23454333.681    92039864.983 7  23454334.449
        43.250

 140116619.242 6                  26663293.071
        40.750                                   104632607.900 6  26663298.285
        40.500   113731071.434 7  26663296.859          43.500   107362137.845 7
  26663296.091          42.500   105997381.445 7  26663296.777          44.500
 126105653.287 6  98264167.863 5  23997099.591    23997102.815    23997099.243
        38.250          35.500    23997102.739


 121066285.007 7  94162676.326 5  22671809.962    22671817.170    22671810.396
        43.000          34.250    22671817.653
                                                                  90903247.898 6
  22671804.900          40.500
 129672293.438 6 100856275.802 5  24300527.630                    24300527.486
        40.750          32.750    24300533.874


 108083733.268 6  84065100.836 6  20212172.426    20212179.195    20212172.399
        41.750          39.250    20212180.496


 107051846.964 8                  20082632.499                    20082632.262
        48.500


 110615348.517 8  86034198.222 7  20700137.554    20700141.566    20700137.840
        51.750          42.750    20700141.548
                                                                  82997773.315 7
  20700129.139          46.250
 121070287.691 7  94340517.73244  23038894.067    23038895.730    23038893.598
        42.250          24.750


 105757093.562 8  82408237.72347  20124848.857    20124846.133    20124847.579
        50.750          46.500


 128538711.082 5                  24045808.538                    24045805.793
        31.000          24.250    24045815.615


 24  1  7  0  4 45.0000000  0 26E26G12G22R21G24G11G14E04E21E19E15E13
                                G17G06R22G30E27G15R09R02R20R10R11G13
                                G19R01
 132447183.482 7                  25203833.828
        44.250                                    98905460.393 7  25203837.222
        45.000   107505904.059 7  25203836.618          47.750   101485584.123 7
  25203834.966          46.250   100195526.831 8  25203835.915          48.750
 132099091.732 6 102934375.520 5  25137622.208    25137625.217    25137621.761
        37.250          35.250    25137626.214


 113619997.271 8  88535133.40246  21621141.284    21621140.296    21621140.444
        48.750          38.500


 106066063.992 8  82495983.328 7  19820955.780    19820961.697    19820956.303
        51.500          47.500    19820961.532
                                                                  79472792.301 8
  19820947.327          49.250
 115847801.930 7  90271051.399 7  22045088.369    22045091.043    22045088.088
        44.750          42.250    22045091.875    86509769.409 8  22045091.548
        48.500

 127968110.572 6  99715450.609 6  24351512.947    24351517.190    24351512.599
        37.750          37.000    24351517.454    95560661.882 6  24351522.184
        40.750                                                   127968108.572 6
  24351513.603          37.750
 116406180.852 7  90706187.666 7  22151334.638    22151335.313    22151334.370
        45.000          44.000    22151335.219    86926802.830 7  22151339.256
        47.750                                                   116406193.858 7
  22151334.789          45.000
 140814978.136 6                  26796190.222
        39.750                                   105154090.511 6  26796195.289
        41.500   114297910.380 7  26796193.241          42.750   107897232.212 6
  26796192.541          41.750   106525668.435 7  26796193.669          44.750
 125991979.438 8                  23975450.697
        48.750                                    94085030.668 8  23975453.965
        50.250   102266297.924 8  23975453.027          53.000    96539401.795 8
  23975451.611          51.250    95312219.805 8  23975452.650          53.750
 140767632.674 5                  26787177.092
        35.750                                   105118746.617 6  26787182.999
        37.250   114259482.180 6  26787180.540          38.500   107860961.735 6
  26787180.327          37.750   106489859.249 6  26787181.531          40.500
 143915145.591 6                  27386123.776
        37.000                                   107469205.959 6  27386130.000
        39.500   116814303.564 6  27386126.741          41.500   110272730.808 6
  27386127.847          41.500   108870976.957 7  27386128.823          43.500
 128504851.473 7                  24453627.927
        47.000                                    95961512.921 8  24453631.988
        48.250   104305946.165 8  24453628.840          51.000    98464839.549 8
  24453629.977          49.250    97213178.809 8  24453630.913          51.750
 112205253.996 8  87432783.063 7  21351903.050    21351902.138    21351902.568
        48.500          44.750    21351902.303


 114871246.039 7  89510144.618 7  21859248.625    21859252.537    21859248.397
        45.500          44.000    21859253.266    85780569.224 7  21859252.822
        47.500

 124868536.138 6  97119977.174 5  23392074.248    23392084.165    23392074.852
        41.500          30.000    23392083.114
                                                                  93791143.940 6
  23392071.704          36.000
 123305282.669 6  96082074.041 6  23464212.733    23464217.571    23464211.973
        40.250          37.250    23464217.915    92078650.254 7  23464217.910
        43.250

 140140756.976 6                  26667886.410
        40.250                                   104650632.830 6  26667891.753
        40.750   113750663.738 7  26667890.175          43.750   107380632.981 7
  26667888.974          42.250   106015641.481 7  26667890.035          44.500
 126136784.026 6  98288425.552 6  24003023.515    24003026.757    24003023.185
        39.000          36.000    24003027.222


 121108274.656 7  94195334.910 5  22679673.720    22679681.205    22679673.921
        43.500          35.000    22679680.834
                                                                  90934775.985 6
  22679667.228          40.000
 129671918.375 6 100855984.155 5  24300457.410                    24300457.558
        40.750          32.750    24300466.919


 108117156.194 6  84091096.442 6  20218422.903    20218429.345    20218422.890
        41.750          39.250    20218429.972


 107063193.802 8                  20084761.366                    20084760.910
        48.500


 110579019.342 8  86005942.224 7  20693338.844    20693343.178    20693339.157
        51.500          43.250    20693343.245
                                                                  82970514.566 7
  20693330.564          46.250
 121113886.610 7  94374490.89544  23047190.629    23047192.494    23047190.160
        42.500          25.250


 105761808.427 8  82411911.65947  20125745.952    20125743.318    20125744.669
        50.500          46.500


                                  24052599.774                    24052601.692
        31.000          24.750    24052610.190


 24  1  7  0  5  0.0000000  0 26E26G12G22R21G24G11G14E04E21E19E15E13
                                G17G06R22G30E27G15R09R02R20R10R11G13
                                G19R01
 132406697.372 7                  25196129.431
        44.250                                    98875227.319 7  25196132.909
        45.000   107473042.000 7  25196132.391          47.750   101454562.362 7
  25196130.680          46.500   100164899.414 8  25196131.616          48.750
 132057753.799 6 102902164.198 5  25129754.748    25129758.992    25129754.292
        36.750          34.750    25129759.300


 113634361.361 8  88546326.20846  21623874.562    21623873.690    21623873.722
        48.500          38.500


 106030409.445 8  82468252.061 7  19814292.827    19814298.754    19814293.234
        51.750          47.250    19814298.825
                                                                  79446077.278 8
  19814284.388          49.000
 115814082.143 7  90244776.267 7  22038671.750    22038674.379    22038671.473
        44.750          42.250    22038674.567    86484589.093 8  22038674.713
        48.500

 127913687.211 6  99673042.880 6  24341157.159    24341160.821    24341156.829
        38.000          37.250    24341161.022    95520021.142 6  24341165.574
        40.750                                                   127913685.215 6
  24341157.029          38.000
 116433025.991 7  90727105.961 7  22156442.808    22156443.679    22156442.536
        44.500          44.000    22156443.930    86946849.521 7  22156447.667
        47.750                                                   116433038.990 7
  22156442.820          45.000
 140822257.756 6                  26797575.390
        39.250                                   105159526.601 6  26797580.689
        41.750   114303819.172 7  26797578.499          42.500   107902810.122 7
  26797577.932          42.000   106531175.435 7  26797578.917          44.750
 125994218.161 8                  23975876.720
        48.500                                    94086702.457 8  23975879.984
        50.000   102268115.081 8  23975879.077          52.750    96541117.200 8
  23975877.643          51.500    95313913.402 9  23975878.646          54.000
 140804871.443 6                  26794263.566
        36.250                                   105146554.777 6  26794269.370
        37.000   114289708.442 6  26794267.327          38.750   107889495.334 6
  26794266.667          38.000   106518030.127 6  26794267.920          40.500
 143947326.200 6                  27392246.301
        36.250                                   107493236.929 6  27392253.814
        39.250   116840424.196 6  27392250.447          41.000   110297388.671 6
  27392251.799          41.500   108895321.373 7  27392252.534          43.500
 128500707.793 7                  24452839.426
        47.000                                    95958418.630 8  24452843.540
        48.000   104302582.799 8  24452840.316          50.750    98461664.540 8
  24452841.423          49.500    97210044.158 8  24452842.372          52.000
 112237758.133 8  87458110.966 7  21358088.367    21358087.624    21358087.885
        48.250          44.500    21358088.138


 114827601.901 7  89476136.248 7  21850943.429    21850947.319    21850943.201
        45.250          44.000    21850947.788    85747977.878 7  21850947.568
        47.500

 124802366.371 6  97068511.900 5  23379678.171    23379687.676    23379678.842
        40.500          30.500    23379687.537
                                                                  93741442.612 6
  23379676.140          36.000
 123357271.458 6  96122584.744 6  23474105.794    23474110.659    23474105.039
        39.750          37.250    23474111.575    92117473.005 7  23474111.226
        43.500

 140164910.996 6                  26672482.726
        40.250                                   104668669.922 6  26672487.931
        40.750   113770269.268 7  26672486.447          43.250   107399140.603 7
  26672485.282          42.250   106033913.836 7  26672486.419          44.500
 126167979.405 6  98312733.635 6  24008960.070    24008963.173    24008959.749
        39.750          36.500    24008963.808


 121150336.230 7  94228049.445 5  22687550.696    22687557.729    22687551.143
        44.000          34.250    22687556.817
                                                                  90966358.097 6
  22687544.525          39.750
 129671707.155 6 100855819.846 5  24300417.642                    24300418.049
        40.250          33.250    24300425.818


 108150744.230 6  84117220.485 6  20224704.453    20224710.605    20224703.988
        41.750          39.000    20224710.466


 107074644.979 8                  20086909.504                    20086909.053
        48.500


 110542734.348 8  85977720.600 7  20686548.370    20686552.668    20686548.558
        51.000          42.750    20686553.008
                                                                  82943288.972 7
  20686540.340          46.250
 121157528.007 7  94408497.16144  23055495.298    23055497.180    23055494.842
        42.250          25.500


 105766629.613 8  82415668.44147  20126663.424    20126660.723    20126662.141
        50.250          46.500


                                  24059412.262                    24059411.551
        30.000          25.250    24059423.063


 24  1  7  0  5 15.0000000  0 26E26G12G22R21G24G11G14E04E21E19E15E13
                                G17G06R22G30E27G15R09R02R20R10R11G13
                                G19R01
 132366261.966 7                  25188434.621
        44.750                                    98845032.104 7  25188438.256
        45.000   107440221.093 8  25188437.764          48.250   101423579.439 7
  25188435.986          46.500   100134310.346 8  25188436.958          48.750
 132016410.639 6 102869948.806 5  25121888.130    25121891.653    25121887.674
        36.750          35.000    25121892.038


 113648756.395 8  88557543.12546  21626613.894    21626612.933    21626613.054
        48.250          38.750


 105994925.773 8  82440653.681 7  19807661.982    19807667.877    19807662.259
        51.750          47.500    19807667.667
                                                                  79419490.281 8
  19807653.368          49.000
 115780470.250 7  90218585.233 7  22032275.620    22032278.249    22032275.343
        44.500          42.500    22032278.575    86459489.346 8  22032278.539
        48.250

 127859265.752 6  99630636.610 6  24330801.045    24330805.002    24330800.710
        38.000          38.000    24330805.007    95479381.841 6  24330809.567
        41.000                                                   127859263.776 6
  24330800.977          38.500
 116459914.407 7  90748057.978 7  22161559.608    22161560.274    22161559.340
        44.250          43.500    22161560.542    86966928.542 7  22161564.422
        47.750                                                   116459927.411 7
  22161559.718          45.500
 140829633.142 6                  26798978.709
        39.750                                   105165034.219 6  26798984.133
        41.500   114309805.715 7  26798982.103          43.250   107908461.413 7
  26798981.354          42.000   106536754.888 7  26798982.468          44.750
 125996480.655 8                  23976307.228
        49.000                                    94088392.004 8  23976310.515
        50.000   102269951.536 8  23976309.563          53.000    96542850.818 8
  23976308.187          51.500    95315624.985 8  23976309.172          53.750
 140842134.708 6                  26801354.690
        36.250                                   105174381.216 6  26801360.414
        36.500   114319954.577 6  26801358.098          39.250   107918047.681 6
  26801357.675          38.000   106546219.522 6  26801358.924          40.250
 143979579.634 6                  27398384.688
        36.750                                   107517322.271 6  27398391.311
        39.000   116866603.916 6  27398387.792          41.500   110322102.321 6
  27398389.010          41.000   108919720.870 7  27398390.071          43.250
 128496675.737 7                  24452072.085
        47.250                                    95955407.700 8  24452076.239
        48.000   104299310.045 8  24452073.118          51.000    98458575.060 8
  24452074.117          49.500    97206993.954 8  24452075.080          52.000
 112270313.886 7  87483479.089 7  21364283.633    21364282.814    21364283.151
        47.750          44.500    21364283.159


 114784043.065 7  89442194.352 7  21842654.497    21842658.311    21842654.269
        45.000          44.000    21842658.879    85715450.240 7  21842658.551
        47.500

 124736229.907 6  97017072.437 5  23367289.266    23367298.659    23367289.401
        40.500          31.500    23367296.857
                                                                  93691766.351 6
  23367286.167          36.500
 123409312.103 6  96163135.861 6  23484008.862    23484013.942    23484008.102
        39.250          37.250    23484014.541    92156334.487 7  23484014.204
        43.500

 140189083.277 6                  26677082.835
        40.750                                   104686720.648 6  26677087.575
        40.500   113789889.630 7  26677086.386          43.500   107417662.232 7
  26677085.189          42.500   106052200.014 7  26677086.254          44.500
 126199240.989 6  98337093.280 6  24014909.089    24014912.232    24014908.768
        39.750          36.500    24014912.652


 121192471.672 7  94260821.419 5  22695441.136    22695447.718    22695441.964
        44.500          34.750    22695448.241
                                                                  90997995.658 6
  22695435.560          40.000
 129671661.487 6 100855784.367 5  24300409.434                    24300409.385
        39.500          33.000    24300417.982


 108184499.319 6  84143474.456 6  20231016.504    20231023.040    20231016.460
        41.750          38.750    20231023.505


 107086202.921 8                  20089077.716                    20089077.301
        48.500


 110506495.846 8  85949535.142 7  20679767.162    20679771.353    20679767.350
        51.500          43.000    20679771.165
                                                                  82916098.260 7
  20679758.824          46.250
 121201213.502 7  94442537.79044  23063808.508    23063810.408    23063808.057
        42.000          25.500


 105771558.979 8  82419509.51847  20127601.493    20127598.778    20127600.215
        50.000          46.750


 128647923.370 5                  24066238.662                    24066237.687
        30.750          23.000    24066247.558


 24  1  7  0  5 30.0000000  0 26E26G12G22R21G24G11G14E04E21E19E15E13
                                G17G06R22G30E27G15R09R02R20R10R11G13
                                G19R01
 132325878.753 7                  25180750.237
        44.750                                    98814875.871 7  25180753.434
        45.000   107407442.555 8  25180753.189          48.250   101392636.509 7
  25180751.160          46.500   100103760.763 8  25180752.235          48.750
 131975063.555 6 102837730.349 5  25114019.587    25114023.513    25114019.122
        36.500          34.500    25114023.321


 113663183.703 8  88568785.19346  21629359.213    21629358.323    21629358.368
        48.500          38.750


 105959614.740 8  82413189.595 7  19801063.089    19801069.038    19801063.549
        51.750          47.750    19801068.742
                                                                  79393032.643 8
  19801054.605          49.250
 115746967.832 7  90192479.469 7  22025900.550    22025902.915    22025900.273
        45.000          42.500    22025903.183    86434471.349 8  22025903.169
        48.250

 127804847.807 6  99588233.112 6  24320445.422    24320449.799    24320445.083
        38.000          37.250    24320449.026    95438745.150 6  24320454.006
        41.000                                                   127804845.828 6
  24320445.497          38.250
 116486847.446 7  90769044.761 7  22166684.894    22166685.466    22166684.613
        44.500          43.750    22166685.694    86987040.877 7  22166689.623
        47.750                                                   116486860.447 7
  22166684.919          45.000
 140837105.510 6                  26800400.901
        39.750                                   105170614.249 6  26800405.775
        41.500   114315870.969 7  26800403.965          42.750   107914187.025 7
  26800403.331          42.000   106542407.711 7  26800404.459          44.750
 125998768.238 8                  23976742.498
        49.000                                    94090100.284 8  23976745.807
        50.000   102271808.356 8  23976744.859          53.000    96544603.662 8
  23976743.515          51.500    95317355.546 8  23976744.455          53.750
 140879423.387 6                  26808450.227
        36.000                                   105202226.632 6  26808455.848
        36.500   114350221.359 6  26808453.492          39.250   107946619.525 6
  26808453.650          38.000   106574428.152 6  26808454.747          40.250
 144011906.917 6                  27404536.556
        37.250                                   107541462.783 6  27404543.071
        39.000   116892843.595 6  27404539.611          41.750   110346872.583 6
  27404540.681          40.750   108944176.257 7  27404541.769          43.000
 128492756.609 7                  24451326.421
        47.500                                    95952481.101 8  24451330.410
        48.000   104296128.946 8  24451327.213          51.000    98455572.114 8
  24451328.301          49.500    97204029.181 8  24451329.255          52.000
 112302922.253 8  87508888.206 7  21370488.664    21370487.903    21370488.186
        48.000          44.500    21370487.957


 114740571.203 7  89408320.214 7  21834381.684    21834385.802    21834381.456
        45.250          44.000    21834386.021    85682987.541 7  21834385.979
        47.500

 124670128.323 6  96965726.188 6  23354905.481                    23354906.187
        40.250          36.250    23354915.379
                                                                  93642116.302 6
  23354903.235          36.750
 123461405.627 6  96203728.183 6  23493922.223    23493926.851    23493921.463
        39.750          37.250    23493927.298    92195235.444 7  23493927.444
        43.500

 140213275.148 6                  26681686.256
        40.750                                   104704786.007 6  26681691.157
        40.250   113809525.903 7  26681689.677          43.500   107436198.863 7
  26681688.766          42.250   106070501.009 7  26681689.814          44.500
 126230569.535 6  98361505.124 6  24020870.519    24020873.680    24020870.202
        40.000          36.250    24020873.353


 121234682.316 7  94293651.906 5  22703345.723    22703353.173    22703346.609
        44.250          34.500    22703353.410
                                                                  91029689.713 6
  22703339.834          39.750
 129671782.685 6 100855878.651 5  24300431.704                    24300431.615
        38.500          32.500    24300438.749


 108218422.620 7  84169859.261 6  20237360.218    20237366.678    20237360.320
        42.000          39.250    20237366.874


 107097868.804 8                  20091266.304                    20091266.005
        48.500


 110470305.447 8  85921387.088 7  20672994.632    20672998.483    20672994.864
        51.500          43.250    20672998.563
                                                                  82888943.642 7
  20672986.244          46.500
 121244943.863 7  94476613.38344  23072129.502    23072131.885    23072129.064
        42.000          25.250


 105776597.551 8  82423435.69347  20128560.103    20128557.563    20128558.820
        50.250          46.750


 128684497.621 5                  24073080.889                    24073079.955
        31.000          23.250    24073086.083


 24  1  7  0  5 45.0000000  0 26E26G12G22R21G24G11G14E04E21E19E15E13
                                G17G06R22G30E27G15R09R02R20R10R11G13
                                G19R01
 132285543.659 7                  25173074.378
        44.750                                    98784755.572 7  25173077.937
        45.250   107374703.078 8  25173077.674          48.000   101361730.456 7
  25173075.681          46.750   100073247.589 8  25173076.675          49.000
 131933708.278 6 102805505.474 5  25106149.669    25106153.814    25106149.213
        36.500          34.750    25106154.480


 113677639.028 8  88580049.09146  21632110.046    21632108.995    21632109.206
        48.250          38.500


 105924472.263 8  82385856.584 7  19794495.780    19794501.814    19794496.294
        52.250          47.500    19794502.020
                                                                  79366701.289 8
  19794487.457          49.250
 115713570.834 7  90166455.873 7  22019545.487    22019547.691    22019545.210
        45.250          42.750    22019547.843    86409532.075 8  22019547.878
        48.250

 127750429.411 6  99545829.210 6  24310089.398    24310094.106    24310089.085
        38.250          38.250    24310094.629    95398108.091 6  24310098.340
        41.000                                                   127750427.402 6
  24310089.620          38.750
 116513820.810 7  90790062.974 7  22171817.796    22171818.341    22171817.515
        44.750          43.750    22171818.502    87007183.333 7  22171822.463
        47.750                                                   116513833.816 7
  22171817.857          45.250
 140844670.424 6                  26801840.194
        39.250                                   105176263.388 6  26801845.399
        41.750   114322011.318 7  26801843.651          42.750   107919983.514 7
  26801842.664          42.000   106548130.526 7  26801844.029          45.000
 126001076.661 8                  23977181.753
        48.750                                    94091824.133 8  23977185.079
        50.000   102273682.092 8  23977184.047          52.750    96546372.473 8
  23977182.788          51.500    95319101.878 9  23977183.714          54.000
 140916732.838 5                  26815549.954
        35.750                                   105230087.576 6  26815555.549
        36.000   114380504.983 6  26815553.604          39.000   107975207.265 6
  26815553.498          38.250   106602652.495 6  26815554.497          40.250
 144044303.561 6                  27410701.231
        36.750                                   107565655.070 6  27410707.631
        38.750   116919139.549 6  27410704.130          41.000   110371695.969 6
  27410705.781          40.750   108968684.095 7  27410706.623          43.000
 128488946.078 7                  24450601.346
        47.250                                    95949635.605 8  24450605.384
        48.250   104293036.007 8  24450602.070          50.500    98452652.382 8
  24450603.199          49.750    97201146.568 8  24450604.126          52.000
 112335578.693 8  87534334.790 7  21376702.979    21376702.178    21376702.506
        48.000          44.750    21376702.321


 114697182.350 7  89374510.771 7  21826125.569    21826129.141    21826125.350
        45.500          44.000    21826129.624    85650586.838 7  21826129.337
        47.750

 124604057.677 6  96914271.980 5  23342527.518    23342538.726    23342528.698
        39.750          31.250    23342537.689
                                                                  93592489.451 6
  23342525.854          36.750
 123513547.410 6  96244358.072 6  23503844.591    23503849.254    23503843.818
        40.000          36.750    23503849.093    92234172.438 7  23503849.705
        43.500

 140237482.353 6                  26686292.946
        40.250                                   104722862.813 6  26686297.906
        40.750   113829174.592 7  26686296.274          43.250   107454747.220 7
  26686295.431          42.250   106088813.591 7  26686296.272          44.500
 126261960.402 6  98385965.510 6  24026844.086    24026847.010    24026843.765
        40.250          36.250    24026847.569


 121276963.781 7  94326537.457 5  22711265.140    22711271.279    22711265.023
        44.750          34.500    22711269.535
                                                                  91061436.917 6
  22711257.874          39.000
 129672066.152 6 100856099.211 5  24300484.691                    24300485.040
        39.000          32.500    24300492.147


 108252508.797 7  84196370.714 6  20243734.572    20243741.108    20243734.608
        42.000          39.250    20243741.130


 107109638.402 8                  20093474.130                    20093473.853
        48.500


 110434159.073 8  85893273.264 7  20666230.098    20666234.464    20666230.264
        51.250          43.250    20666233.896
                                                                  82861822.045 7
  20666221.881          46.250
 121288714.188 7  94510720.11444  23080459.145    23080461.031    23080458.703
        42.000          24.500


 105781740.905 8  82427443.51847  20129538.993    20129536.278    20129537.710
        50.000          46.500


 128721152.572 4                  24079938.711                    24079936.466
        29.750          25.000    24079942.402


 24  1  7  0  6  0.0000000  0 26E26G12G22R21G24G11G14E04E21E19E15E13
                                G17G06R22G30E27G15R09R02R20R10R11G13
                                G19R01
 132245263.400 7                  25165409.235
        44.750                                    98754676.213 7  25165412.874
        45.000   107342008.105 8  25165412.584          48.000   101330866.416 7
  25165410.614          47.000   100042775.890 8  25165411.550          49.000
 131892351.179 6 102773279.233 5  25098280.007    25098283.736    25098279.551
        36.500          35.000    25098284.438


 113692128.776 8  88591339.81446  21634867.294    21634866.225    21634866.449
        48.750          38.500


 105889505.035 8  82358659.886 7  19787961.224    19787967.217    19787961.841
        52.250          47.500    19787967.414
                                                                  79340501.254 8
  19787952.824          49.250
 115680285.995 7  90140519.669 7  22013211.469    22013213.866    22013211.192
        45.250          43.000    22013214.559    86384676.554 8  22013213.865
        48.000

 127696017.282 6  99503430.227 6  24299735.294    24299739.309    24299735.004
        38.500          37.500    24299739.148    95357475.754 6  24299743.623
        40.750                                                   127696015.281 6
  24299735.315          38.250
 116540840.915 7  90811117.607 7  22176959.380    22176960.010    22176959.103
        44.750          43.500    22176960.493    87027360.690 7  22176964.154
        47.500                                                   116540853.920 7
  22176959.495          45.000
 140852334.190 6                  26803298.497
        38.750                                   105181986.355 6  26803303.944
        41.750   114328231.931 7  26803302.330          42.750   107925855.776 7
  26803300.928          42.250   106553928.141 7  26803302.413          45.000
 126003412.431 8                  23977626.259
        48.750                                    94093568.393 8  23977629.523
        50.000   102275578.026 8  23977628.513          52.500    96548162.237 8
  23977627.276          51.500    95320868.889 8  23977628.176          53.750
 140954069.314 5                  26822654.741
        35.000                                   105257968.740 6  26822660.617
        36.000   114410810.551 6  26822658.650          38.750   108003815.738 6
  26822658.393          38.000   106630897.312 6  26822659.355          40.000
 144076775.743 6                  27416880.934
        36.750                                   107589903.794 6  27416887.136
        38.500   116945496.864 6  27416883.434          41.000   110396577.243 6
  27416884.688          40.500   108993249.093 7  27416885.793          42.500
 128485250.668 7                  24449898.000
        47.250                                    95946876.062 8  24449902.149
        48.000   104290036.500 8  24449898.725          50.500    98449820.850 8
  24449899.916          49.750    97198351.030 8  24449900.887          52.000
 112368289.446 8  87559823.696 7  21382927.558    21382926.905    21382927.080
        48.250          44.750    21382927.307


 114653883.362 7  89340771.348 7  21817885.772    21817889.582    21817885.553
        45.750          44.000    21817890.065    85618253.232 7  21817889.755
        47.750

 124538025.208 6  96862913.484 5  23330158.648    23330167.773    23330158.679
        40.750          31.250    23330168.368
                                                                  93542891.307 6
  23330155.410          37.000
 123565743.633 6  96285030.442 6  23513776.217    23513781.743    23513775.439
        39.500          37.250    23513782.204    92273150.096 7  23513782.637
        43.750

 140261711.374 6                  26690903.762
        40.500                                   104740955.906 6  26690908.592
        40.500   113848840.992 7  26690907.036          43.250   107473312.320 7
  26690905.879          42.250   106107142.687 7  26690906.905          44.500
 126293419.621 6  98410479.168 6  24032830.368    24032833.440    24032830.047
        40.000          36.000    24032833.914


 121319322.399 7  94359483.015 5  22719195.603    22719203.074    22719196.090
        43.500          34.000    22719202.998
                                                                  91093242.050 6
  22719190.778          39.000
 129672518.465 6 100856450.980 5  24300570.139                    24300569.974
        39.500          32.000    24300578.284


 108286763.945 6  84223013.607 6  20250139.406    20250147.136    20250140.412
        41.750          39.250    20250147.463


 107121518.343 8                  20095702.747                    20095702.322
        48.500


 110398063.589 8  85865199.041 7  20659475.332    20659479.510    20659475.529
        51.000          43.250    20659479.604
                                                                  82834738.644 7
  20659466.789          46.250
 121332530.639 6  94544862.79144  23088796.619    23088798.917    23088796.181
        41.250          24.000


 105786995.378 8  82431537.92547  20130538.852    20130536.133    20130537.569
        50.500          46.500


                                  24086810.366                    24086809.203
        28.250          24.750    24086823.018


 24  1  7  0  6 15.0000000  0 26E26G12G22R21G24G11G14E04E21E19E15E13
                                G17G06R22G30E27G15R09R02R20R10R11G13
                                G19R01
 132205032.254 7                  25157753.705
        44.750                                    98724633.538 7  25157757.054
        45.250   107309352.992 8  25157756.755          48.250   101300040.006 7
  25157754.731          46.500   100012341.344 8  25157755.769          49.000
 131850986.554 6 102741047.091 5  25090408.261    25090412.348    25090407.796
        36.250          35.000    25090413.085


 113706647.098 8  88602652.80346  21637629.960    21637628.878    21637629.115
        48.500          38.250


 105854707.590 8  82331595.243 7  19781458.826    19781464.368    19781459.108
        52.250          47.000    19781463.952
                                                                  79314428.428 8
  19781450.145          49.500
 115647107.662 7  90114666.470 7  22006897.828    22006900.287    22006897.551
        45.250          43.000    22006900.922    86359900.575 7  22006900.090
        47.750

 127641605.884 6  99461031.822 6  24289381.086    24289385.324    24289380.827
        38.750          37.250    24289384.842    95316843.968 6  24289390.166
        41.000                                                   127641603.881 6
  24289381.326          38.500
 116567901.852 7  90832204.050 7  22182109.052    22182109.561    22182108.780
        44.500          43.500    22182109.588    87047568.539 7  22182113.674
        47.500                                                   116567914.858 7
  22182109.068          44.750
 140860090.804 6                  26804774.459
        38.500                                   105187778.631 7  26804779.963
        42.000   114334527.890 7  26804778.417          43.000   107931799.168 6
  26804777.090          41.750   106559795.973 7  26804778.406          44.750
 126005769.657 8                  23978074.879
        48.750                                    94095328.681 8  23978078.027
        50.000   102277491.371 8  23978077.075          53.000    96549968.441 8
  23978075.802          51.000    95322652.135 8  23978076.715          53.750
 140991426.674 5                  26829764.044
        35.500                                   105285865.409 6  26829769.281
        36.000   114441133.062 6  26829767.492          39.250   108032440.160 6
  26829767.208          37.500   106659157.857 6  26829768.153          39.750
 144109317.373 6                  27423072.659
        36.250                                   107614204.348 6  27423079.698
        38.750   116971910.519 6  27423076.277          41.750   110421511.745 6
  27423077.111          40.000   109017866.620 7  27423078.243          42.250
 128481664.432 7                  24449215.567
        47.250                                    95944198.055 8  24449219.730
        48.250   104287125.609 8  24449216.238          51.000    98447072.979 8
  24449217.402          49.250    97195638.091 8  24449218.445          51.750
 112401048.527 8  87585350.250 7  21389161.518    21389160.785    21389161.045
        48.250          44.500    21389160.995


 114610668.648 7  89307097.598 7  21809662.284    21809666.098    21809662.061
        45.750          44.250    21809666.943    85585982.566 7  21809666.168
        47.500

 124472025.095 6  96811580.117 5  23317794.705    23317804.054    23317794.638
        41.500          30.500    23317803.472
                                                                  93493317.452 6
  23317791.311          37.250
 123617988.101 6  96325740.380 6  23523718.163    23523723.694    23523717.408
        39.250          37.000    23523723.774    92312163.786 7  23523724.122
        43.000

 140285956.334 6                  26695517.367
        40.250                                   104759060.902 6  26695522.407
        40.750   113868520.336 7  26695520.690          43.750   107491889.608 6
  26695519.507          41.750   106125483.827 7  26695520.581          44.250
 126324940.934 6  98435041.209 6  24038828.656    24038831.772    24038828.335
        40.250          36.000    24038832.144


 121361752.046 7  94392483.806 5  22727141.210    22727148.414    22727141.371
        43.000          34.000    22727148.195
                                                                  91125100.567 6
  22727136.095          39.000
 129673133.538 6 100856929.365 5  24300684.308                    24300685.055
        39.250          31.250    24300692.502


 108321181.448 6  84249782.796 6  20256576.986    20256583.285    20256576.592
        41.500          38.750    20256584.076


 107133502.647 8                  20097950.935                    20097950.725
        48.500


 110362013.266 8  85837159.930 7  20652728.731    20652733.200    20652728.928
        51.000          42.250    20652733.620
                                                                  82807689.127 7
  20652720.769          46.500
 121376386.897 6  94579036.47343  23097142.648    23097144.472    23097142.210
        41.500          23.500


 105792354.851 8  82435714.15447  20131558.865    20131555.949    20131557.582
        50.500          46.250


 128794715.853 4                  24093697.983                    24093698.224
        28.250          23.750    24093703.990


 24  1  7  0  6 30.0000000  0 26E26G12G22R21G24G11G14E04E21E19E15E13
                                G17G06R22G30E27G15R09R02R20R10R11G13
                                G19R01
 132164852.009 7                  25150107.477
        44.750                                    98694628.873 7  25150111.085
        44.750   107276739.206 8  25150110.598          48.500   101269252.605 7
  25150108.650          46.750    99981945.313 8  25150109.684          48.750
 131809615.873 6 102708810.235 5  25082535.389    25082539.556    25082534.933
        36.000          35.250    25082539.985


 113721195.709 8  88613989.39546  21640398.597    21640397.300    21640397.752
        48.500          38.250


 105820081.677 8  82304664.011 7  19774988.170    19774993.707    19774988.532
        52.250          47.750    19774993.685
                                                                  79288484.127 8
  19774979.511          49.500
 115614037.707 7  90088897.707 7  22000604.521    22000607.275    22000604.244
        45.000          43.000    22000607.584    86335205.508 7  22000607.037
        47.750

 127587197.116 6  99418635.457 6  24279027.277    24279031.435    24279027.049
        38.750          37.750    24279031.225    95276214.139 6  24279035.834
        41.000                                                   127587195.100 6
  24279027.370          38.750
 116595005.263 7  90853323.592 7  22187266.492    22187267.096    22187266.220
        44.500          43.500    22187267.288    87067808.099 7  22187271.343
        47.750                                                   116595018.264 7
  22187266.424          45.000
 140867941.731 6                  26806268.464
        39.000                                   105193641.355 6  26806273.808
        41.750   114340900.405 7  26806271.975          42.750   107937814.827 7
  26806271.118          42.250   106565735.165 7  26806272.331          45.000
 126008149.987 8                  23978527.953
        49.000                                    94097106.220 8  23978531.012
        49.750   102279423.474 8  23978530.104          53.250    96551792.345 8
  23978528.698          51.500    95324452.856 8  23978529.656          53.750
 141028806.207 6                  26836876.961
        36.000                                   105313778.683 5  26836882.457
        35.250   114471473.546 6  26836880.566          39.000   108061081.599 6
  26836880.152          37.500   106687435.217 6  26836881.190          39.500
 144141929.799 6                  27429278.601
        36.500                                   107638557.761 6  27429285.608
        38.500   116998381.619 6  27429281.964          41.750   110446500.470 6
  27429282.816          40.000   109042537.691 7  27429284.207          42.250
 128478188.960 7                  24448554.259
        47.250                                    95941602.761 7  24448558.369
        47.750   104284304.630 8  24448554.787          51.000    98444409.982 8
  24448556.023          49.500    97193008.947 8  24448557.057          51.750
 112433856.799 8  87610915.152 7  21395404.651    21395403.854    21395404.173
        48.000          44.250    21395403.863


 114567540.166 7  89273491.044 7  21801455.006    21801458.985    21801454.783
        45.500          44.250    21801459.790    85553776.295 7  21801459.078
        47.750

 124406059.388 6  96760273.531 5  23305437.243    23305446.037    23305437.091
        41.500          32.250    23305445.250
                                                                  93443769.449 6
  23305433.938          37.250
 123670282.120 6  96366488.940 6  23533670.113    23533674.660    23533669.367
        40.000          36.750    23533674.754    92351214.476 7  23533675.285
        43.000

 140310218.851 6                  26700134.309
        40.250                                   104777179.014 6  26700139.492
        40.500   113888213.936 7  26700137.342          43.500   107510480.380 6
  26700136.364          41.750   106143838.271 7  26700137.635          44.250
 126356525.476 6  98459652.534 6  24044839.054    24044842.085    24044838.733
        40.000          36.000    24044842.774


 121404254.381 7  94425541.161 5  22735100.324    22735109.105    22735100.596
        42.750          35.250    22735108.833
                                                                  91157013.608 6
  22735094.958          38.750
 129673912.727 6 100857535.464 5  24300829.690                    24300830.150
        39.000          31.000    24300838.371


 108355763.116 6  84276679.639 6  20263043.019    20263050.289    20263043.382
        41.750          39.500    20263051.080


 107145593.117 8                  20100218.987                    20100218.768
        48.500


 110326010.019 8  85809157.441 7  20645991.665    20645995.453    20645991.754
        51.250          43.000    20645995.480
                                                                  82780674.935 7
  20645983.192          46.500
 121420284.177 6  94613242.12843  23105495.836    23105497.839    23105495.412
        41.500          23.500


 105797820.739 8  82439973.30447  20132598.826    20132595.990    20132597.548
        50.250          46.250


 128831618.810 4                  24100600.295                    24100600.317
        28.500          23.000    24100612.514


 24  1  7  0  6 45.0000000  0 26E26G12G22R21G24G11G14E04E21E19E15E13
                                G17G06R22G30E27G15R09R02R20R10R11G13
                                G19R01
 132124726.215 7                  25142471.796
        45.000                                    98664664.860 7  25142475.189
        45.000   107244169.609 8  25142474.845          48.750   101238506.923 7
  25142473.009          46.750    99951590.465 8  25142473.945          49.000
 131768242.361 6 102676571.190 5  25074662.573    25074666.262    25074662.100
        36.250          35.250    25074667.156


 113735777.769 8  88625352.04746  21643173.332    21643172.089    21643172.487
        48.500          38.000


 105785630.819 8  82277868.944 7  19768550.230    19768555.835    19768550.570
        52.250          47.750    19768556.014
                                                                  79262670.985 8
  19768541.446          49.750
 115581079.660 7  90063216.143 7  21994332.814    21994335.488    21994332.537
        45.250          43.250    21994335.779    86310594.017 7  21994335.183
        47.750

 127532794.555 6  99376243.959 6  24268675.318    24268678.957    24268675.099
        39.750          37.750    24268679.226    95235588.968 6  24268683.862
        41.500                                                   127532792.559 6
  24268675.259          39.500
 116622154.402 7  90874478.780 7  22192432.937    22192433.384    22192432.669
        44.750          43.250    22192433.737    87088081.815 7  22192437.721
        47.750                                                   116622167.414 7
  22192432.886          45.250
 140875890.089 6                  26807781.123
        39.250                                   105199576.838 6  26807786.181
        41.750   114347352.004 7  26807784.214          42.500   107943905.139 7
  26807783.437          42.000   106571748.062 7  26807784.758          44.750
 126010556.741 8                  23978985.721
        49.000                                    94098903.493 8  23978988.977
        50.000   102281377.020 8  23978988.042          53.250    96553636.500 8
  23978986.644          51.250    95326273.570 8  23978987.629          53.750
 141066210.847 6                  26843994.951
        36.250                                   105341710.717 6  26844000.550
        36.000   114501834.465 6  26843998.404          39.000   108089742.304 6
  26843997.954          37.000   106715731.585 6  26843999.047          39.500
 144174616.039 6                  27435498.712
        36.750                                   107662966.308 6  27435505.464
        38.500   117024912.642 7  27435502.062          42.250   110471545.774 6
  27435502.734          39.250   109067264.615 7  27435504.247          42.000
 128474827.542 7                  24447914.548
        47.500                                    95939092.631 8  24447918.702
        48.000   104281576.219 8  24447915.272          51.000    98441834.364 8
  24447916.321          49.500    97190466.072 8  24447917.381          51.750
 112466717.347 8  87636520.779 7  21401657.834    21401656.903    21401657.361
        48.250          44.250    21401657.163


 114524501.548 7  89239954.517 7  21793265.076    21793268.903    21793264.853
        45.750          44.000    21793269.560    85521637.133 7  21793268.974
        47.750

 124340131.805 6  96708996.614 5  23293086.361    23293095.812    23293086.160
        41.250          31.500    23293096.156
                                                                  93394250.069 6
  23293082.846          37.750
 123722628.657 6  96407278.401 6  23543631.062    23543635.918    23543630.316
        40.000          36.750    23543636.410    92390304.381 7  23543636.677
        43.250

 140334502.215 6                  26704755.069
        40.250                                   104795312.693 6  26704760.122
        40.250   113907924.465 7  26704758.450          43.750   107529087.120 7
  26704757.633          42.000   106162208.479 7  26704758.631          44.250
 126388176.239 6  98484315.440 6  24050862.163    24050865.275    24050861.850
        40.250          36.000    24050866.120


 121446832.361 7  94458657.315 5  22743073.498    22743081.922    22743073.914
        42.750          34.000    22743082.289
                                                                  91188983.458 6
  22743068.951          39.000
 129674859.257 6 100858271.671 4  24301008.370                    24301008.808
        39.750          29.250    24301018.080


 108390511.262 6  84303705.980 6  20269542.016    20269548.351    20269541.507
        41.750          39.000    20269548.950


 107157793.396 8                  20102507.813                    20102507.504
        48.750


 110290057.526 8  85781194.415 7  20639263.383    20639267.485    20639263.540
        51.250          43.250    20639267.789
                                                                  82753698.819 7
  20639255.099          46.750
 121464225.330 7  94647481.97443  23113857.783    23113859.508    23113857.354
        42.000          23.750


 105803396.059 8  82444317.72547  20133659.775    20133656.868    20133658.492
        50.500          46.250


 128868605.766 4                  24107519.106                    24107519.168
        28.750          21.000    24107526.204


 24  1  7  0  7  0.0000000  0 26E26G12G22R21G24G11G14E04E21E19E15E13
                                G17G06R22G30E27G15R09R02R20R10R11G13
                                G19R01
 132084650.981 7                  25134845.957
        44.750                                    98634738.604 7  25134849.087
        45.250   107211641.050 8  25134848.881          48.500   101207799.974 7
  25134846.817          47.000    99921273.863 8  25134847.860          49.250
 131726861.877 6 102644326.696 5  25066788.197    25066791.819    25066787.728
        36.750          34.750    25066792.391


 113750389.238 8  88636737.61846  21645953.710    21645952.552    21645952.865
        48.250          38.000


 105751351.120 8  82251207.005 7  19762144.388    19762149.653    19762144.410
        52.000          47.500    19762149.443
                                                                  79236986.111 8
  19762135.493          49.750
 115548229.679 7  90037618.795 7  21988081.641    21988084.301    21988081.360
        45.250          43.000    21988084.623    86286063.230 7  21988083.862
        47.750

 127478394.460 6  99333854.357 6  24258323.243    24258326.998    24258322.993
        39.500          38.000    24258326.690    95194965.639 6  24258331.702
        41.750                                                   127478392.472 6
  24258323.152          39.750
 116649345.221 7  90895666.440 7  22197607.136    22197607.578    22197606.877
        44.750          43.250    22197607.600    87108386.652 8  22197612.008
        48.000                                                   116649358.230 7
  22197607.326          45.500
 140883931.684 6                  26809311.423
        39.250                                   105205581.963 7  26809316.517
        42.000   114353879.291 7  26809314.451          42.500   107950066.896 7
  26809313.652          42.000   106577831.503 7  26809315.000          45.000
 126012985.883 8                  23979448.006
        48.750                                    94100717.478 8  23979451.239
        50.000   102283348.739 8  23979450.260          52.750    96555497.806 8
  23979448.871          51.500    95328111.215 8  23979449.856          53.750
 141103636.308 6                  26851116.841
        36.000                                   105369658.277 6  26851122.306
        36.000   114532212.249 6  26851120.401          38.500   108118418.918 6
  26851119.428          36.750   106744043.672 6  26851120.883          39.500
 144207371.781 6                  27441732.542
        37.000                                   107687426.765 6  27441738.561
        38.750   117051500.099 7  27441735.583          42.000   110496644.330 6
  27441736.269          39.750   109092044.121 7  27441737.567          42.250
 128471576.083 7                  24447295.826
        47.000                                    95936664.623 8  24447299.944
        48.250   104278937.070 8  24447296.533          50.750    98439343.014 8
  24447297.581          49.750    97188006.392 8  24447298.624          52.000
 112499625.903 8  87662163.814 7  21407919.996    21407919.235    21407919.518
        48.000          44.250    21407919.311


 114481549.068 7  89206485.110 7  21785091.508    21785095.160    21785091.280
        45.500          44.000    21785095.912    85489562.296 8  21785095.316
        48.000

 124274238.774 6  96657746.566 5  23280742.553    23280751.200    23280742.504
        41.500          32.500    23280751.213
                                                                  93344756.666 6
  23280739.137          38.000
 123775023.336 6  96448105.388 6  23553601.738    23553606.303    23553600.996
        39.750          37.000    23553608.015    92429430.252 7  23553606.973
        43.250

 140358802.406 6                  26709379.150
        39.750                                   104813458.944 6  26709384.405
        40.500   113927648.653 7  26709382.965          43.500   107547706.744 7
  26709381.768          42.000   106180591.419 7  26709382.785          44.250
 126419888.631 6  98509026.366 6  24056896.934    24056900.118    24056896.626
        40.750          36.500    24056900.417


 121489481.993 7  94491829.255 5  22751060.955    22751068.329    22751061.313
        43.000          33.750    22751067.649
                                                                  91221007.130 6
  22751055.554          38.750
 129675969.058 6 100859134.874 4  24301216.219                    24301215.982
        38.750          28.750    24301228.500


 108425421.152 6  84330858.131 6  20276069.748    20276076.543    20276069.788
        41.750          39.250    20276076.963


 107170099.410 8                  20104816.519                    20104816.090
        48.750


 110254151.914 8  85753267.859 7  20632544.054    20632548.334    20632544.313
        51.250          43.250    20632547.918
                                                                  82726757.874 7
  20632535.890          46.500
 121508205.816 7  94681752.46044  23122227.031    23122228.690    23122226.598
        42.250          24.250


 105809076.575 8  82448744.12147  20134740.843    20134737.797    20134739.560
        50.500          46.250


 128905672.284 5                  24114454.001                    24114455.700
        30.000          24.250    24114473.388


 24  1  7  0  7 15.0000000  0 26E26G12G22R21G24G11G14E04E21E19E15E13
                                G17G06R22G30E27G15R09R02R20R10R11G13
                                G19R01
 132044627.795 7                  25127229.566
        44.500                                    98604851.224 7  25127232.973
        45.500   107179154.741 8  25127232.602          48.500   101177132.912 7
  25127230.596          47.000    99890996.642 8  25127231.657          49.500
 131685475.808 6 102612077.865 5  25058913.526    25058916.427    25058913.057
        37.750          35.000    25058916.696


 113765031.527 8  88648147.20146  21648740.035    21648738.890    21648739.190
        48.500          38.000


 105717244.362 8  82224679.557 8  19755770.540    19755775.876    19755770.773
        52.000          48.000    19755775.912
                                                                  79211430.803 8
  19755761.734          49.750
 115515489.334 7  90012106.883 7  21981851.131    21981853.961    21981850.850
        44.750          43.250    21981854.172    86261614.324 8  21981853.759
        48.000

 127423998.440 6  99291467.949 6  24247971.873    24247976.027    24247971.645
        39.250          38.750    24247976.269    95154345.334 6  24247980.449
        41.750                                                   127423996.436 6
  24247971.913          39.250
 116676578.982 7  90916887.549 7  22202789.517    22202789.986    22202789.258
        44.750          43.500    22202790.585    87128723.554 8  22202794.448
        48.000                                                   116676591.993 7
  22202789.632          45.250
 140892067.687 6                  26810859.672
        39.500                                   105211657.552 7  26810864.828
        42.250   114360483.202 7  26810862.932          42.500   107956301.002 7
  26810861.941          42.250   106583986.351 7  26810863.239          45.250
 126015438.739 8                  23979914.779
        48.750                                    94102549.171 8  23979918.003
        50.250   102285339.708 8  23979916.984          53.000    96557377.281 8
  23979915.559          51.500    95329966.799 9  23979916.607          54.000
 141141083.468 5                  26858242.733
        35.750                                   105397622.040 6  26858248.287
        36.250   114562607.685 6  26858245.980          38.500   108147112.205 6
  26858245.467          37.000   106772372.198 6  26858246.895          39.750
 144240198.095 6                  27447979.017
        36.500                                   107711939.916 6  27447985.193
        38.750   117078144.836 7  27447982.134          42.250   110521796.954 6
  27447983.048          39.750   109116877.011 7  27447984.132          42.250
 128468435.857 7                  24446698.080
        47.000                                    95934319.675 8  24446702.391
        48.250   104276388.201 8  24446698.993          51.000    98436936.894 8
  24446699.956          49.750    97185630.858 8  24446701.053          52.000
 112532583.419 8  87687844.997 7  21414191.696    21414190.935    21414191.218
        48.000          44.500    21414190.989


 114438684.376 7  89173084.104 7  21776934.350    21776938.150    21776934.122
        45.500          44.250    21776938.933    85457553.007 8  21776938.333
        48.000

 124208381.813 7  96606524.529 5  23268404.952    23268414.086    23268405.184
        42.000          31.000    23268412.547
                                                                  93295290.362 6
  23268401.741          38.000
 123827467.164 6  96488970.672 6  23563581.557    23563585.984    23563580.820
        40.000          36.500    23563586.681    92468592.787 7  23563586.846
        43.250

 140383120.723 6                  26714006.934
        40.000                                   104831618.718 6  26714011.777
        40.750   113947387.537 7  26714010.212          43.500   107566340.261 7
  26714009.297          42.000   106198988.064 7  26714010.394          44.500
 126451663.478 6  98533785.975 6  24062943.796    24062946.577    24062943.492
        40.750          36.500    24062947.449


 121532204.322 7  94525057.666 5  22759060.982    22759070.175    22759061.519
        42.500          34.250    22759070.273
                                                                  91253085.385 6
  22759055.952          38.500
 129677242.998 6 100860125.725 4  24301454.094                    24301455.346
        39.000          28.500    24301462.637


 108460493.968 6  84358136.985 6  20282628.673    20282635.352    20282628.686
        41.750          39.250    20282635.535


 107182512.237 8                  20107145.191                    20107144.691
        48.500


 110218294.805 8  85725379.030 7  20625833.851    20625838.042    20625834.226
        51.500          43.250    20625838.091
                                                                  82699853.332 7
  20625825.490          46.500
 121552226.538 7  94716054.31044  23130604.074    23130605.572    23130603.627
        42.750          24.250


 105814863.458 8  82453253.39947  20135841.929    20135838.986    20135840.646
        50.500          46.250


 128942818.971 4                  24121404.748                    24121404.024
        29.500          21.500    24121411.887


 24  1  7  0  7 30.0000000  0 26E26G12G22R21G24G11G14E04E21E19E15E13
                                G17G06R22G30E27G15R09R02R20R10R11G13
                                G19R01
 132004658.348 7                  25119623.618
        45.000                                    98575003.970 7  25119626.990
        45.750   107146712.054 8  25119626.628          48.500   101146507.033 7
  25119624.635          47.000    99860760.076 8  25119625.670          49.250
 131644085.505 6 102579825.739 5  25051036.522    25051039.826    25051036.040
        37.500          34.500    25051041.311


 113779706.096 8  88659581.93846  21651532.618    21651531.356    21651531.773
        48.500          38.000


 105683312.149 8  82198287.887 7  19749429.324    19749434.946    19749429.740
        52.000          47.750    19749434.897
                                                                  79186006.277 8
  19749420.585          49.750
 115482860.357 7  89986681.746 7  21975642.145    21975644.801    21975641.859
        45.000          43.000    21975645.181    86237248.570 8  21975644.599
        48.000

 127369608.242 6  99249086.080 6  24237622.232    24237625.487    24237621.982
        39.750          38.250    24237625.845    95113729.418 6  24237630.048
        41.500                                                   127369606.239 6
  24237621.717          39.750
 116703857.181 7  90938143.289 7  22207980.535    22207980.915    22207980.276
        44.750          43.000    22207980.865    87149093.637 8  22207985.412
        48.000                                                   116703870.184 7
  22207980.498          45.250
 140900299.409 6                  26812425.930
        39.250                                   105217804.650 7  26812431.377
        42.250   114367164.799 7  26812429.007          42.500   107962608.448 7
  26812428.414          42.250   106590213.623 7  26812429.681          45.250
 126017916.806 8                  23980386.290
        49.000                                    94104399.690 8  23980389.483
        50.250   102287351.135 8  23980388.536          53.000    96559276.074 8
  23980387.102          51.250    95331841.455 8  23980388.154          53.750
 141178553.582 6                  26865372.937
        36.000                                   105425602.967 6  26865378.415
        36.500   114593021.716 6  26865376.247          38.250   108175823.044 6
  26865375.681          36.750   106800718.080 6  26865377.251          39.500
 144273096.214 6                  27454238.968
        37.000                                   107736506.678 6  27454245.608
        38.750   117104847.836 7  27454242.201          42.250   110547004.588 6
  27454243.151          39.750   109141764.206 7  27454244.444          42.250
 128465408.328 7                  24446121.912
        47.500                                    95932058.885 8  24446126.228
        48.250   104273930.807 8  24446122.901          51.000    98434617.119 8
  24446123.811          49.500    97183340.576 8  24446124.898          52.000
 112565591.154 8  87713565.325 7  21420472.815    21420472.054    21420472.337
        48.000          44.000    21420472.126


 114395909.261 7  89139752.899 7  21768794.343    21768798.197    21768794.115
        45.500          43.750    21768799.087    85425610.618 8  21768798.438
        48.000

 124142562.853 6  96555332.105 5  23256074.208    23256084.026    23256074.682
        41.250          32.000    23256084.383
                                                                  93245852.584 6
  23256071.408          38.500
 123879961.297 6  96529875.162 6  23573571.369    23573575.357    23573570.627
        40.250          36.500    23573575.589    92507792.931 7  23573576.058
        42.500

 140407458.644 6                  26718637.984
        40.250                                   104849793.129 6  26718643.377
        40.500   113967142.335 7  26718641.509          43.500   107584988.786 7
  26718640.647          42.000   106217399.533 7  26718641.753          44.500
 126483502.121 6  98558595.276 6  24069002.425    24069005.229    24069002.112
        41.000          36.000    24069005.466


 121575000.853 7  94558343.837 5  22767075.941    22767084.330    22767076.192
        42.250          33.750    22767083.520
                                                                  91285219.316 6
  22767071.322          39.000
 129678682.727 6 100861245.555 4  24301724.265                    24301724.467
        38.250          29.000    24301733.412


 108495731.119 6  84385543.656 6  20289218.691    20289225.080    20289218.307
        41.500          39.250    20289225.518


 107195034.106 8                  20109494.113                    20109493.818
        48.750


 110182487.908 8  85697529.242 7  20619133.174    20619137.294    20619133.353
        51.750          43.000    20619137.088
                                                                  82672986.453 7
  20619124.814          46.500
 121596288.520 7  94750388.30444  23138989.002    23138990.527    23138988.560
        42.750          24.500


 105820757.895 8  82457846.48647  20136963.587    20136960.658    20136962.309
        50.500          46.000


 128980046.624 4                  24128369.171                    24128366.837
        28.000          20.500    24128368.038


 24  1  7  0  7 45.0000000  0 26E26G12G22R21G24G11G14E04E21E19E15E13
                                G17G06R22G30E27G15R09R02R20R10R11G13
                                G19R01
 131964742.893 7                  25112027.804
        44.750                                    98545197.037 7  25112031.350
        45.250   107114313.185 8  25112030.863          48.500   101115922.524 7
  25112028.892          46.750    99830564.354 8  25112029.953          49.000
 131602691.079 6 102547570.403 5  25043159.595    25043162.684    25043159.113
        38.000          34.750    25043162.747


 113794412.989 8  88671041.86546  21654331.233    21654330.003    21654330.393
        48.500          38.250


 105649554.787 8  82172032.199 7  19743121.014    19743126.426    19743121.202
        52.000          47.250    19743126.467
                                                                  79160712.763 8
  19743112.204          49.750
 115450343.022 7  89961343.607 7  21969454.319    21969456.899    21969454.029
        44.750          43.000    21969457.556    86212966.184 8  21969456.791
        48.000

 127315224.212 6  99206709.043 6  24227272.672    24227276.482    24227272.418
        39.500          38.500    24227277.125    95073118.110 6  24227280.841
        41.000                                                   127315222.223 6
  24227272.899          39.500
 116731179.837 7  90959433.662 7  22213179.700    22213180.241    22213179.450
        44.500          43.250    22213180.679    87169496.913 8  22213184.707
        48.000                                                   116731192.843 7
  22213179.757          45.250
 140908626.749 6                  26814010.491
        39.000                                   105224023.131 7  26814015.924
        42.000   114373924.027 7  26814013.764          42.250   107968989.151 6
  26814012.885          41.750   106596513.215 7  26814014.291          44.750
 126020420.151 8                  23980862.720
        48.750                                    94106269.088 8  23980865.846
        49.750   102289383.082 8  23980864.934          53.000    96561194.239 8
  23980863.442          51.000    95333735.238 8  23980864.517          53.500
 141216046.324 5                  26872507.484
        35.750                                   105453600.772 5  26872513.319
        35.750   114623454.127 6  26872510.918          38.250   108204551.244 6
  26872510.375          36.500   106829081.081 6  26872511.963          39.000
 144306065.912 6                  27460513.987
        38.000                                   107761126.908 6  27460519.747
        38.500   117131608.947 7  27460516.286          42.250   110572267.085 6
  27460516.923          39.250   109166705.569 7  27460518.400          42.000
 128462493.533 7                  24445567.186
        47.000                                    95929882.277 8  24445571.474
        48.000   104271564.926 8  24445568.228          51.000    98432383.729 8
  24445569.102          49.250    97181135.576 8  24445570.203          51.750
 112598649.056 8  87739324.733 7  21426763.655    21426762.694    21426763.177
        48.000          44.000    21426763.150


 114353224.113 7  89106491.807 7  21760671.543    21760675.371    21760671.329
        45.500          43.750    21760676.104    85393735.414 8  21760675.656
        48.000

 124076782.426 7  96504169.649 5  23243751.727    23243761.125    23243752.478
        42.500          32.000    23243760.624
                                                                  93196443.732 6
  23243748.963          38.750
 123932505.503 6  96570818.665 6  23583569.318    23583574.295    23583568.576
        39.500          36.250    23583574.657    92547030.426 7  23583575.139
        42.500

 140431816.223 6                  26723272.903
        39.750                                   104867982.244 6  26723278.296
        40.250   113986913.101 7  26723276.865          43.250   107603652.395 6
  26723275.959          41.750   106235825.893 7  26723276.841          44.000
 126515403.986 6  98583453.849 6  24075072.846    24075076.150    24075072.525
        40.250          36.250    24075076.589


 121617871.444 7  94591687.636 5  22775104.955    22775111.403    22775105.268
        43.250          32.750    22775112.159
                                                                  91317408.926 6
  22775099.165          38.750
 129680287.949 6 100862494.116 4  24302026.029                    24302025.595
        37.750          28.000    24302034.022


 108531131.330 7  84413077.181 6  20295838.129    20295844.638    20295838.692
        42.000          38.750    20295845.881


 107207664.618 8                  20111863.537                    20111863.372
        48.750


 110146731.694 8  85669718.902 7  20612441.499    20612445.789    20612441.745
        51.250          42.750    20612445.780
                                                                  82646157.619 7
  20612433.497          46.500
 121640391.375 7  94784754.15244  23147381.398    23147383.133    23147380.960
        42.500          24.250


 105826759.782 8  82462523.29647  20138105.864    20138102.760    20138104.581
        50.500          46.000


 129017354.770 4                  24135346.620                    24135347.604
        29.750          21.750    24135362.448


 24  1  7  0  8  0.0000000  0 26E26G12G22R21G24G11G14E04E21E19E15E13
                                G17G06R22G30E27G15R09R02R20R10R11G13
                                G19R01
 131924878.049 7                  25104441.876
        45.000                                    98515427.896 7  25104445.301
        45.750   107081955.404 8  25104444.801          48.250   101085376.791 7
  25104442.795          46.500    99800406.917 8  25104443.878          49.250
 131561288.860 6 102515308.978 5  25035281.684    25035284.080    25035281.206
        38.250          34.750    25035284.796


 113809148.551 8  88682524.13546  21657135.376    21657134.060    21657134.531
        48.750          38.000


 105615968.969 8  82145909.922 7  19736844.435    19736850.196    19736844.807
        52.250          46.500    19736850.000
                                                                  79135547.780 8
  19736835.893          49.750
 115417933.958 7  89936089.849 7  21963286.629    21963289.607    21963286.343
        44.750          42.750    21963290.032    86188764.663 8  21963289.495
        48.250

 127260843.099 6  99164334.254 6  24216923.823    24216927.910    24216923.546
        39.250          38.250    24216928.057    95032508.955 6  24216932.224
        41.250                                                   127260841.103 6
  24216924.122          39.500
 116758543.345 7  90980755.878 7  22218386.973    22218387.380    22218386.723
        44.750          43.250    22218387.679    87189930.705 8  22218391.824
        48.000                                                   116758556.350 7
  22218386.936          45.500
 140917045.972 6                  26815612.965
        39.000                                   105230310.234 7  26815617.861
        42.000   114380757.826 7  26815615.961          42.000   107975440.267 6
  26815614.885          41.750   106602882.325 7  26815616.403          44.750
 126022945.218 8                  23981343.108
        49.000                                    94108154.705 8  23981346.355
        50.000   102291432.662 8  23981345.434          52.500    96563129.046 8
  23981343.938          51.000    95335645.449 8  23981345.008          53.500
 141253557.812 6                  26879645.965
        36.000                                   105481612.580 6  26879651.622
        36.000   114653901.750 6  26879649.145          37.750   108233293.813 6
  26879648.731          36.500   106857458.270 6  26879650.186          39.250
 144339103.337 6                  27466800.580
        38.250                                   107785797.718 6  27466806.510
        38.500   117158425.051 6  27466803.394          41.750   110597581.469 6
  27466803.762          39.000   109191698.166 7  27466805.275          42.000
 128459687.850 7                  24445033.387
        47.250                                    95927787.148 8  24445037.541
        48.250   104269287.606 8  24445034.282          50.500    98430233.938 8
  24445035.232          49.250    97179013.116 8  24445036.270          51.750
 112631752.955 8  87765119.986 7  21433062.912    21433062.245    21433062.434
        48.000          44.000    21433062.599


 114310625.684 7  89073298.298 7  21752565.673    21752569.018    21752565.459
        45.750          43.500    21752569.679    85361924.975 8  21752569.419
        48.000

 124011037.351 7  96453034.646 5  23231435.069    23231444.511    23231436.133
        43.250          31.000    23231444.891
                                                                  93147061.459 6
  23231432.551          39.000
 123985095.809 6  96611798.088 6  23593576.650    23593582.092    23593575.917
        39.500          36.000    23593582.199    92586302.390 7  23593582.860
        42.500

 140456189.872 6                  26727911.202
        40.000                                   104886183.345 6  26727916.367
        40.250   114006696.913 7  26727915.214          43.000   107622328.306 6
  26727914.102          41.750   106254264.398 7  26727914.975          44.000
 126547364.969 6  98608358.509 5  24081154.576    24081158.305    24081154.259
        39.750          35.500    24081157.746


 121660812.333 7  94625086.051 5  22783147.205    22783153.921    22783147.626
        44.000          32.500    22783153.009
                                                                  91349651.243 6
  22783139.586          38.000
 129682055.048 6 100863868.500 4  24302356.192                    24302356.429
        37.000          28.750    24302366.130


 108566690.853 6  84440734.599 6  20302488.072    20302494.818    20302488.255
        41.750          38.500    20302496.151


 107220400.766 8                  20114252.771                    20114252.641
        49.000


 110111022.666 8  85641945.220 7  20605759.041    20605763.317    20605759.363
        51.250          42.250    20605763.451
                                                                  82619364.171 7
  20605750.900          46.500
 121684531.223 7  94819148.83043  23155781.110    23155782.679    23155780.681
        42.500          23.750


 105832865.356 8  82467280.90647  20139267.485    20139264.605    20139266.202
        50.500          46.000


 129054739.411 4                  24142337.579                    24142341.398
        28.250


 24  1  7  0  8 15.0000000  0 26E26G12G22R21G24G11G14E04E21E19E15E13
                                G17G06R22G30E27G15R09R02R20R10R11G13
                                G19R01
 131885068.088 7                  25096866.354
        45.000                                    98485699.745 7  25096869.681
        45.500   107049642.168 8  25096869.100          48.500   101054873.116 7
  25096867.049          46.500    99770291.003 8  25096868.249          49.000
 131519883.047 6 102483044.770 5  25027401.314    25027404.698    25027400.827
        37.250          35.250    25027405.709


 113823916.930 8  88694031.97446  21659945.823    21659944.445    21659944.978
        48.750          38.250


 105582558.923 8  82119924.368 7  19730601.081    19730606.551    19730601.345
        52.500          47.250    19730606.484
                                                                  79110514.501 8
  19730592.436          49.750
 115385637.549 7  89910923.860 7  21957140.636    21957143.631    21957140.346
        44.500          42.750    21957144.029    86164647.267 8  21957143.657
        48.250

 127206469.299 6  99121965.180 6  24206576.798    24206580.755    24206576.535
        39.000          38.500    24206581.037    94991905.285 6  24206585.320
        41.500                                                   127206467.298 6
  24206576.511          39.250
 116785951.792 7  91002113.110 7  22223602.523    22223603.037    22223602.278
        44.500          43.250    22223603.180    87210398.055 7  22223607.441
        47.750                                                   116785964.795 7
  22223602.504          45.250
 140925561.056 6                  26817233.178
        39.250                                   105236668.922 6  26817238.052
        41.750   114387669.425 7  26817236.398          42.500   107981964.815 6
  26817235.362          41.750   106609323.942 7  26817236.741          44.750
 126025496.134 8                  23981828.585
        48.750                                    94110059.628 8  23981831.715
        49.750   102293503.220 8  23981830.763          53.000    96565083.655 8
  23981829.338          51.000    95337575.215 8  23981830.426          53.500
 141291092.012 5                  26886788.074
        35.750                                   105509641.360 5  26886793.909
        35.750   114684367.799 6  26886791.786          38.250   108262053.752 6
  26886791.309          36.250   106885852.631 6  26886792.745          39.000
 144372212.413 6                  27473100.820
        38.000                                   107810522.015 6  27473106.759
        38.250   117185299.271 7  27473103.951          42.500   110622950.756 6
  27473104.199          39.250   109216744.958 6  27473105.738          41.750
 128456995.384 7                  24444520.994
        47.250                                    95925776.564 8  24444525.215
        48.000   104267102.179 8  24444521.808          51.000    98428170.906 8
  24444522.897          49.250    97176976.308 8  24444523.882          51.750
 112664906.837 8  87790954.190 7  21439372.064    21439371.375    21439371.586
        48.250          44.250    21439371.813


 114268118.426 7  89040175.807 7  21744476.514    21744479.992    21744476.304
        45.750          43.500    21744480.945    85330182.598 8  21744480.412
        48.000

 123945332.014 7  96401930.579 5  23219126.357    23219135.244    23219127.117
        43.500          32.000    23219135.531
                                                                  93097709.024 6
  23219123.879          39.000
 124037736.076 6  96652816.451 6  23603594.244    23603599.122    23603593.525
        39.500          36.750    23603599.860    92625611.643 7  23603599.662
        42.250

 140480583.744 6                  26732553.266
        39.750                                   104904399.545 6  26732558.140
        40.000   114026497.135 7  26732556.884          43.500   107641019.718 6
  26732555.849          41.500   106272718.205 7  26732556.990          43.750
 126579388.900 6  98633312.187 5  24087248.513    24087252.122    24087248.196
        39.500          35.250    24087252.126


 121703827.664 7  94658542.419 5  22791201.994    22791209.443    22791202.276
        43.750          33.250    22791210.159
                                                                  91381949.490 6
  22791196.280          38.500
 129683987.733 6 100865371.791 4  24302718.010                    24302718.198
        36.500          28.500    24302725.538


 108602413.318 6  84468518.729 6  20309167.899    20309175.097    20309168.579
        41.750          38.750    20309174.909


 107233246.519 8                  20116662.145                    20116662.154
        48.500


 110075365.384 8  85614211.818 7  20599086.080    20599090.624    20599086.509
        51.250          43.000    20599090.039
                                                                  82592609.559 7
  20599078.136          46.250
 121728711.531 7  94853575.03244  23164187.784    23164190.028    23164187.342
        42.000          24.250


 105839078.416 8  82472122.27047  20140449.926    20140446.939    20140448.648
        50.500          46.000


 129092203.939 4                  24149348.668                    24149348.145
        27.250          22.250    24149352.337


 24  1  7  0  8 30.0000000  0 26E26G12G22R21G24G11G14E04E21E19E15E13
                                G17G06R22G30E27G15R09R02R20R10R11G13
                                G19R01
 131845312.342 7                  25089300.889
        45.000                                    98456012.077 7  25089304.310
        45.750   107017372.941 8  25089303.791          48.750   101024410.973 7
  25089301.575          46.500    99740216.099 8  25089302.918          49.250
 131478472.668 6 102450776.976 5  25019521.529    25019524.561    25019521.042
        37.250          35.000    25019524.923


 113838717.388 8  88705564.81346  21662762.137    21662760.952    21662761.292
        48.750          38.000


 105549324.007 8  82094075.032 7  19724390.280    19724395.862    19724390.638
        52.750          47.250    19724395.415
                                                                  79085612.438 8
  19724381.613          49.750
 115353453.140 7  89885845.138 7  21951016.160    21951019.079    21951015.870
        44.750          43.000    21951019.696    86140613.504 8  21951019.302
        48.250

 127152102.228 6  99079601.342 6  24196230.476    24196234.947    24196230.231
        38.750          38.250    24196234.567    94951306.626 6  24196239.042
        40.750                                                   127152100.222 6
  24196230.927          38.750
 116813404.281 7  91023504.663 7  22228826.453    22228826.985    22228826.217
        44.750          43.000    22228826.962    87230898.294 7  22228831.344
        47.500                                                   116813417.283 7
  22228826.742          44.750
 140934170.920 6                  26818871.568
        39.000                                   105243098.388 7  26818876.554
        42.000   114394657.964 7  26818874.587          42.500   107988562.005 7
  26818873.967          42.000   106615837.271 7  26818875.113          45.000
 126028072.057 8                  23982318.770
        48.750                                    94111983.221 8  23982321.842
        50.000   102295594.076 8  23982320.962          53.000    96567057.428 8
  23982319.532          51.000    95339523.898 8  23982320.598          53.500
 141328647.597 6                  26893935.154
        36.000                                   105537686.099 5  26893940.489
        35.750   114714851.237 6  26893938.563          38.500   108290830.105 6
  26893938.063          37.000   106914263.175 6  26893939.303          39.250
 144405391.901 6                  27479414.543
        38.000                                   107835298.905 6  27479421.027
        38.500   117212230.688 7  27479417.338          42.250   110648374.013 6
  27479418.136          39.250   109241845.035 7  27479419.559          42.000
 128454415.200 7                  24444029.908
        47.000                                    95923849.830 8  24444034.219
        48.250   104265007.885 8  24444030.723          51.000    98426193.902 8
  24444031.927          49.500    97175024.439 8  24444032.867          51.750
 112698109.290 8  87816826.232 7  21445690.205    21445689.627    21445689.732
        48.250          44.250    21445689.922


 114225701.737 7  89007123.897 7  21736405.066    21736408.227    21736404.856
        46.000          43.500    21736408.876    85298507.879 7  21736408.794
        47.750

 123879666.055 7  96350857.143 5  23206825.734    23206833.893    23206825.676
        43.250          30.500    23206833.535
                                                                  93048386.146 6
  23206822.228          39.000
 124090425.098 6  96693872.775 6  23613621.314    23613625.794    23613620.604
        40.250          36.250    23613626.697    92664957.304 7  23613626.361
        42.250

 140504996.966 6                  26737198.975
        39.750                                   104922630.190 6  26737204.010
        40.000   114046313.053 7  26737203.018          44.000   107659725.942 6
  26737201.598          41.750   106291186.640 7  26737202.659          44.000
 126611474.417 6  98658313.866 5  24093353.992    24093357.940    24093353.679
        39.000          35.500    24093358.987


 121746916.323 7  94692055.787 5  22799270.372    22799277.562    22799271.047
        43.250          33.000    22799277.848
                                                                  91414302.805 6
  22799264.380          38.250
 129686085.161 6 100867003.046 4  24303113.218                    24303112.422
        36.750          29.250    24303120.347


 108638297.320 6  84496428.523 6  20315878.330    20315885.546    20315878.759
        41.500          38.750    20315885.389


 107246200.770 8                  20119092.965                    20119092.590
        48.750


 110039759.178 8  85586518.142 7  20592423.234    20592427.466    20592423.248
        51.250          43.250    20592427.466
                                                                  82565893.278 7
  20592414.937          46.500
 121772930.952 7  94888031.71743  23172602.485    23172604.684    23172602.052
        42.000          23.500


 105845397.972 8  82477046.61947  20141652.325    20141649.534    20141651.042
        50.500          46.000


 129129746.936 4                  24156371.152                    24156372.493
        29.250


 24  1  7  0  8 45.0000000  0 26E26G12G22R21G24G11G14E04E21E19E15E13
                                G17G06R22G30E27G15R09R02R20R10R11G13
                                G19R01
 131805607.858 7                  25081745.309
        45.000                                    98426362.691 7  25081748.788
        46.000   106985145.321 8  25081748.243          48.750   100993988.119 7
  25081746.112          46.750    99710179.978 8  25081747.329          49.500
 131437054.468 6 102418503.170 5  25011639.848    25011642.995    25011639.352
        36.750          35.500    25011643.787


 113853546.723 8  88717120.15246  21665584.049    21665582.868    21665583.204
        48.500          38.250


 105516261.453 8  82068359.744 8  19718211.893    19718217.242    19718212.210
        52.750          48.000    19718217.197
                                                                  79060839.524 8
  19718202.961          49.500
 115321377.796 7  89860851.411 7  21944912.891    21944915.408    21944912.601
        44.750          43.000    21944915.574    86116661.193 8  21944915.649
        48.500

 127097739.018 6  99037240.531 6  24185885.342    24185889.911    24185885.119
        38.250          38.250    24185890.068    94910710.883 6  24185894.270
        41.250                                                   127097737.018 6
  24185885.640          38.500
 116840897.642 7  91044928.073 7  22234058.632    22234058.810    22234058.391
        44.500          43.250    22234059.137    87251429.056 7  22234063.165
        47.500                                                   116840910.652 7
  22234058.603          45.250
 140942872.285 6                  26820527.084
        38.750                                   105249596.177 7  26820532.499
        42.250   114401720.770 7  26820530.559          42.500   107995229.308 7
  26820529.881          42.250   106622419.815 7  26820530.919          45.250
 126030669.830 8                  23982813.108
        48.750                                    94113923.134 8  23982816.153
        50.250   102297702.668 8  23982815.349          53.000    96569047.947 8
  23982813.920          51.250    95341489.113 8  23982814.940          53.750
 141366221.163 6                  26901085.078
        36.250                                   105565744.256 5  26901090.614
        35.500   114745349.236 6  26901088.566          37.750   108319620.216 6
  26901088.228          37.000   106942687.309 6  26901089.191          39.250
 144438638.486 6                  27485741.455
        38.250                                   107860125.906 6  27485747.541
        39.250   117239216.545 7  27485743.995          42.000   110673848.668 6
  27485744.990          39.750   109266995.861 7  27485746.221          42.500
 128451944.106 7                  24443559.802
        47.250                                    95922004.561 8  24443563.979
        48.250   104263002.153 8  24443560.576          51.000    98424300.496 8
  24443561.705          49.750    97173155.102 8  24443562.609          52.000
 112731356.867 8  87842733.458 7  21452017.014    21452016.312    21452016.541
        48.000          44.500    21452016.651


 114183372.856 7  88974140.406 7  21728349.908    21728353.190    21728349.707
        45.500          43.500    21728354.053    85266898.709 7  21728353.797
        47.750

 123814036.537 7  96299811.947 5  23194530.793    23194538.755    23194531.205
        43.500          31.000    23194540.790
                                                                  92999090.637 6
  23194527.694          38.750
 124143159.385 6  96734964.419 6  23623655.934    23623660.754    23623655.232
        39.750          36.750    23623661.327    92704336.767 6  23623661.017
        41.750

 140529426.373 6                  26741847.750
        39.750                                   104940872.939 6  26741852.732
        40.250   114066142.122 7  26741851.605          43.750   107678444.587 6
  26741850.328          41.500   106309667.338 7  26741851.429          44.000
 126643618.042 6  98683360.840 5  24099471.105    24099474.861    24099470.797
        38.750          35.250    24099475.482


 121790075.053 7  94725623.643 5  22807352.736    22807360.378    22807353.138
        43.500          33.500    22807360.561
                                                                  91446708.705 6
  22807346.861          37.750
 129688344.034 5 100868760.053 5  24303534.726                    24303534.395
        35.500          30.500    24303543.027


 108674339.098 6  84524461.013 6  20322618.939    20322625.542    20322618.858
        41.500          39.750    20322625.103


 107259260.511 8                  20121542.980                    20121542.448
        48.750


 110004201.150 8  85558861.929 7  20585768.789    20585773.253    20585769.008
        51.000          43.750    20585773.267
                                                                  82539213.134 7
  20585760.773          46.500
 121817185.983 6  94922516.13844  23181023.753    23181026.203    23181023.306
        41.500          24.000


 105851820.688 8  82482051.35347  20142874.464    20142871.767    20142873.186
        50.250          46.250


 129167364.774 5                  24163410.340                    24163411.046
        31.000


 24  1  7  0  9  0.0000000  0 26E26G12G22R21G24G11G14E04E21E19E15E13
                                G17G06R22G30E27G15R09R02R20R10R11G13
                                G19R01
 131765961.284 7                  25074200.779
        45.000                                    98396756.553 7  25074204.222
        46.000   106952964.710 8  25074203.614          48.500   100963609.633 7
  25074201.519          47.000    99680187.666 8  25074202.749          49.500
 131395635.070 6 102386228.390 5  25003758.036    25003761.019    25003757.558
        36.750          35.750    25003761.408


 113868411.316 8  88728702.96346  21668412.654    21668411.491    21668411.814
        48.750          38.250


 105483377.844 8  82042783.643 8  19712066.962    19712072.168    19712067.069
        52.750          48.000    19712072.226
                                                                  79036200.696 8
  19712057.838          49.750
 115289418.234 7  89835947.902 7  21938830.836    21938833.662    21938830.550
        44.500          42.750    21938834.010    86092795.336 8  21938833.768
        48.500

 127043386.436 6  98994888.003 6  24175543.060    24175546.803    24175542.846
        38.750          38.000    24175546.257    94870123.053 6  24175550.992
        41.000                                                   127043384.437 6
  24175542.952          38.750
 116868438.347 7  91066388.354 7  22239299.177    22239299.632    22239298.927
        44.250          43.000    22239299.708    87271995.164 7  22239304.027
        47.500                                                   116868451.350 7
  22239299.144          45.000
 140951671.450 6                  26822201.872
        38.750                                   105256166.987 7  26822206.786
        42.000   114408862.958 7  26822205.092          42.500   108001971.526 7
  26822204.450          42.500   106629076.330 7  26822205.332          45.250
 126033295.963 8                  23983312.861
        48.750                                    94115884.213 8  23983315.911
        50.000   102299834.279 8  23983315.017          52.750    96571060.188 8
  23983313.659          51.250    95343475.775 8  23983314.667          53.750
 141403818.675 6                  26908239.822
        36.250                                   105593820.319 5  26908245.040
        35.250   114775866.690 6  26908242.993          37.750   108348428.666 6
  26908242.834          36.750   106971129.565 6  26908243.680          39.000
 144471958.294 6                  27492082.180
        38.000                                   107885007.567 6  27492088.423
        39.000   117266261.850 6  27492084.832          41.750   110699379.435 6
  27492085.710          39.750   109292202.074 7  27492086.830          42.250
 128449588.549 7                  24443111.464
        47.000                                    95920245.562 8  24443115.716
        48.250   104261090.192 8  24443112.238          50.750    98422495.608 8
  24443113.402          49.500    97171373.159 8  24443114.342          52.000
 112764655.788 8  87868680.678 7  21458353.397    21458352.807    21458352.919
        48.000          44.500    21458352.963


 114141138.515 7  88941230.600 7  21720313.034    21720316.231    21720312.833
        45.500          43.750    21720317.035    85235360.160 7  21720316.829
        47.750

 123748450.412 7  96248800.672 5  23182244.429    23182252.955    23182244.411
        43.750          31.250    23182253.469
                                                                  92949827.761 6
  23182240.834          38.500
 124195945.090 6  96776096.094 6  23633700.576    23633705.664    23633699.892
        39.500          37.000    23633706.876    92743754.625 7  23633706.191
        42.000

 140553878.424 6                  26746500.903
        39.750                                   104959132.589 6  26746505.849
        40.250   114085989.571 7  26746504.691          43.750   107697180.575 6
  26746503.253          41.250   106328165.157 7  26746504.524          43.750
 126675825.867 6  98708457.817 5  24105600.202    24105603.653    24105599.889
        38.500          34.750    24105603.864


 121833310.357 7  94759251.101 5  22815449.016    22815457.198    22815449.753
        43.500          32.500    22815457.153
                                                                  91479172.133 6
  22815443.780          38.500
 129690770.677 6 100870647.471 5  24303990.076                    24303989.803
        36.250          30.000    24304001.556


 108710544.424 6  84552620.723 6  20329389.114    20329396.159    20329389.413
        41.750          39.500    20329396.155


 107272432.763 8                  20124013.740                    20124013.677
        48.750


 109968698.105 8  85531248.497 7  20579125.081    20579129.147    20579125.023
        51.000          43.500    20579128.986
                                                                  82512574.251 7
  20579116.774          46.500
 121861482.704 6  94957033.03543  23189453.263    23189455.507    23189452.812
        41.250          23.500


 105858352.783 8  82487141.31747  20144117.373    20144114.802    20144116.095
        50.250          46.250


 129205063.319 4                  24170464.132                    24170462.656
        29.000          19.500    24170478.452


 24  1  7  0  9 15.0000000  0 26E26G12G22R21G24G11G14E04E21E19E15E13
                                G17G06R22G30E27G15R09R02R20R10R11G13
                                G19R01
 131726366.408 7                  25066666.138
        44.750                                    98367189.018 7  25066669.528
        46.000   106920826.062 8  25066668.978          48.500   100933270.766 7
  25066666.856          46.750    99650234.467 8  25066668.042          49.500
 131354207.861 6 102353947.547 5  24995874.677    24995877.627    24995874.204
        36.750          35.000    24995878.079


 113883304.748 8  88740308.24846  21671246.768    21671245.667    21671245.923
        48.750          38.250


 105450667.038 8  82017341.930 7  19705954.002    19705959.253    19705954.333
        52.500          47.750    19705959.132
                                                                  79011691.328 8
  19705945.030          50.000
 115257568.281 7  89811129.795 7  21932770.293    21932772.680    21932770.003
        45.000          42.500    21932773.020    86069011.332 8  21932772.934
        49.000

 126989038.373 6  98952539.005 6  24165200.433    24165204.426    24165200.210
        38.500          37.500    24165203.813    94829538.613 6  24165208.888
        41.250                                                   126989036.384 6
  24165200.513          38.500
 116896019.948 7  91087880.504 7  22244547.501    22244548.440    22244547.256
        44.500          43.000    22244548.717    87292591.807 7  22244552.548
        47.500                                                   116896032.952 7
  22244547.638          45.250
 140960561.818 6                  26823893.807
        39.000                                   105262805.928 7  26823898.373
        42.000   114416079.191 7  26823896.661          42.000   108008783.670 7
  26823896.019          42.750   106635801.873 7  26823897.106          45.250
 126035944.059 8                  23983816.803
        48.500                                    94117861.703 8  23983819.889
        50.000   102301983.717 8  23983819.044          52.750    96573089.261 8
  23983817.592          51.250    95345479.057 8  23983818.568          53.750
 141441433.661 6                  26915397.779
        36.250                                   105621909.398 5  26915403.240
        35.000   114806398.326 6  26915400.812          37.750   108377250.520 6
  26915400.724          36.500   106999585.033 6  26915401.454          38.750
 144505344.736 6                  27498435.044
        37.500                                   107909938.998 6  27498441.470
        38.500   117293361.225 6  27498438.023          41.500   110724961.249 6
  27498438.977          40.000   109317458.696 7  27498440.136          42.250
 128447342.107 7                  24442683.904
        47.000                                    95918568.050 8  24442688.223
        48.250   104259266.795 8  24442684.745          50.750    98420774.325 8
  24442685.856          49.750    97169673.762 8  24442686.827          52.000
 112797999.337 8  87894662.673 7  21464698.467    21464697.962    21464697.994
        48.000          44.500    21464698.118


 114098992.688 7  88908389.749 7  21712292.766    21712296.186    21712292.561
        45.750          43.500    21712297.210    85203887.694 8  21712296.713
        48.000

 123682901.563 7  96197818.272 5  23169964.601    23169972.720    23169964.946
        43.500          30.750    23169972.304
                                                                  92900592.852 6
  23169961.520          38.500
 124248775.498 6  96817262.618 6  23643754.240    23643758.832    23643753.570
        40.000          36.500    23643759.785    92783205.869 7  23643758.930
        42.000

 140578346.747 6                  26751157.055
        39.500                                   104977404.391 6  26751162.050
        40.000   114105850.225 7  26751160.838          43.500   107715929.033 6
  26751159.356          41.750   106346675.285 7  26751160.725          43.750
 126708091.088 6  98733599.513 5  24111740.172    24111743.610    24111739.842
        38.000          34.250    24111743.342


 121876615.462 7  94792932.790 5  22823559.702    22823566.194    22823559.916
        43.750          33.250    22823565.519
                                                                  91511687.961 6
  22823553.231          38.250
 129693358.323 5 100872660.009 4  24304473.009                    24304474.512
        35.250          29.750    24304481.798


 108746906.835 6  84580902.604 6  20336189.690    20336195.971    20336189.386
        41.250          39.250    20336195.926


 107285710.908 8                  20126504.933                    20126504.571
        48.750


 109933243.890 8  85503673.013 7  20572490.229    20572494.478    20572490.390
        51.000          43.250    20572494.384
                                                                  82485972.004 7
  20572481.998          46.750
 121905814.234 6  94991577.07343  23197889.290    23197891.557    23197888.839
        41.750          23.500


 105864987.631 8  82492311.34847  20145380.163    20145377.363    20145378.880
        50.500          46.000


 129242835.660 4                  24177530.703                    24177528.016
        28.000          22.000    24177548.551


 24  1  7  0  9 30.0000000  0 26E26G12G22R21G24G11G14E04E21E19E15E13
                                G17G06R22G30E27G15R09R02R20R10R11G13
                                G19R01
 131686827.088 7                  25059141.859
        45.000                                    98337662.965 7  25059145.454
        46.000   106888732.501 8  25059144.815          48.750   100902974.456 7
  25059142.693          46.750    99620323.285 8  25059143.874          49.500
 131312776.535 6 102321663.520 5  24987990.262    24987993.624    24987989.780
        36.250          35.250    24987993.803


 113898230.783 8  88751938.93846  21674087.110    21674086.010    21674086.265
        48.750          38.250


 105418132.958 8  81992037.698 7  19699873.850    19699879.580    19699874.329
        52.000          47.500    19699879.120
                                                                  78987314.393 8
  19699865.187          50.000
 115225831.829 7  89786400.136 7  21926731.043    21926733.234    21926730.753
        45.250          42.000    21926733.409    86045312.085 8  21926733.828
        49.250

 126934698.812 6  98910196.595 6  24154859.877    24154863.780    24154859.645
        39.000          37.750    24154863.119    94788960.517 6  24154868.184
        41.750                                                   126934696.820 6
  24154860.587          39.000
 116923646.076 7  91109407.363 7  22249804.814    22249805.444    22249804.564
        44.500          43.000    22249805.618    87313221.709 7  22249809.548
        47.750                                                   116923659.079 7
  22249804.790          45.000
 140969546.940 6                  26825603.478
        39.000                                   105269515.608 7  26825608.093
        42.000   114423372.309 7  26825606.112          42.000   108015668.377 7
  26825605.832          42.500   106642599.066 7  26825606.942          45.250
 126038617.790 8                  23984325.467
        48.750                                    94119858.331 8  23984328.687
        50.000   102304153.959 8  23984327.753          53.000    96575137.972 8
  23984326.373          51.250    95347501.726 8  23984327.358          53.750
 141479069.420 6                  26922559.284
        36.000                                   105650014.011 5  26922564.860
        34.750   114836946.818 6  26922562.683          38.000   108406088.288 6
  26922562.644          36.500   107028056.226 6  26922563.200          38.750
 144538801.163 6                  27504801.856
        37.750                                   107934922.693 6  27504807.897
        38.250   117320517.418 6  27504804.124          41.250   110750596.681 6
  27504805.628          39.750   109342768.260 7  27504806.631          42.000
 128445208.371 7                  24442277.897
        47.000                                    95916974.705 8  24442282.087
        48.250   104257534.889 8  24442278.730          50.750    98419139.413 8
  24442279.831          49.750    97168059.632 8  24442280.758          52.000
 112831390.991 7  87920682.148 7  21471052.450    21471052.280    21471051.972
        47.750          44.000    21471052.521


 114056939.341 7  88875620.970 7  21704290.470    21704293.752    21704290.265
        46.000          43.750    21704293.984    85172484.293 8  21704294.055
        48.250

 123617394.311 7  96146868.269 5  23157693.292    23157701.813    23157693.297
        44.000          32.000    23157701.742
                                                                  92851389.174 6
  23157689.554          38.250
 124301653.962 6  96858466.586 6  23653816.763    23653821.319    23653816.093
        40.000          36.000    23653822.401    92822693.002 7  23653821.752
        42.000

 140602835.005 6                  26755817.013
        39.750                                   104995691.077 6  26755821.712
        40.000   114125727.063 7  26755820.680          43.750   107734692.768 6
  26755819.421          41.500   106365200.496 7  26755820.687          43.750
 126740416.740 6  98758788.332 5  24117891.027    24117895.127    24117890.688
        37.250          34.250    24117895.668


 121919993.956 7  94826671.587 5  22831682.832    22831689.763    22831683.664
        44.000          33.250    22831690.411
                                                                  91544258.885 6
  22831676.496          38.750
 129696110.741 6 100874800.846 4  24304990.160                    24304990.840
        36.000          29.250    24304997.862


 108783429.457 6  84609309.107 6  20343019.462    20343025.868    20343019.274
        41.500          39.250    20343026.405


 107299098.652 8                  20129016.531                    20129016.070
        48.750


 109897842.458 8  85476138.591 7  20565865.636    20565869.411    20565865.739
        51.250          43.500    20565869.268
                                                                  82459409.359 7
  20565857.003          47.000
 121950183.791 7  95026150.73443  23206332.916    23206334.651    23206332.460
        42.000          23.250


 105871728.687 8  82497564.14247  20146662.932    20146660.114    20146661.649
        50.500          46.000


 129280684.640 4                  24184607.899
        26.500


 24  1  7  0  9 45.0000000  0 26E26G12G22R21G24G11G14E04E21E19E15E13
                                G17G06R22G30E27G15R09R02R20R10R11G13
                                G19R01
 131647339.475 7                  25051627.368
        45.000                                    98308175.530 7  25051631.084
        46.000   106856680.913 8  25051630.378          48.500   100872717.780 7
  25051628.336          46.750    99590451.230 8  25051629.580          49.500
 131271337.175 6 102289373.204 5  24980104.036    24980107.846    24980103.567
        36.250          35.250    24980108.261


 113913185.484 8  88763591.96646  21676932.908    21676931.821    21676932.063
        48.500          38.500


 105385771.707 8  81966867.868 7  19693826.557    19693831.991    19693826.816
        52.000          47.750    19693831.799
                                                                  78963066.946 8
  19693817.648          49.750
 115194205.091 7  89761755.953 7  21920712.323    21920714.702    21920712.033
        45.000          42.250    21920715.078    86021694.764 8  21920715.354
        49.250

 126880363.998 6  98867857.912 6  24144520.161    24144524.060    24144519.911
        38.500          38.250    24144524.123    94748385.968 6  24144528.486
        41.500                                                   126880362.017 6
  24144520.040          38.250
 116951312.719 7  91130965.787 7  22255069.308    22255070.202    22255069.058
        44.250          43.250    22255070.367    87333881.864 7  22255074.404
        47.750                                                   116951325.719 7
  22255069.525          44.750
 140978622.618 6                  26827330.721
        39.250                                   105276292.929 7  26827335.448
        42.000   114430738.944 6  26827333.383          41.750   108022622.498 7
  26827332.919          42.500   106649464.788 7  26827334.025          45.250
 126041313.188 8                  23984838.406
        49.000                                    94121871.141 8  23984841.563
        50.000   102306341.795 8  23984840.625          53.000    96577203.294 8
  23984839.254          51.250    95349540.792 8  23984840.266          53.750
 141516721.551 6                  26929724.696
        36.500                                   105678130.866 5  26929730.210
        35.000   114867508.602 6  26929727.782          38.250   108434938.618 5
  26929727.144          35.500   107056539.813 6  26929728.125          38.250
 144572323.326 6                  27511180.651
        37.500                                   107959955.469 6  27511186.934
        38.000   117347726.968 6  27511183.711          41.000   110776282.500 6
  27511184.508          39.750   109368127.561 7  27511185.672          42.000
 128443183.319 7                  24441892.559
        47.500                                    95915462.511 8  24441896.749
        48.250   104255891.191 8  24441893.275          50.750    98417587.768 8
  24441894.448          49.750    97166527.714 8  24441895.379          52.000
 112864826.397 7  87946735.726 7  21477415.027    21477414.790    21477414.554
        47.250          44.250    21477414.928


 114014974.765 7  88842921.360 7  21696304.451    21696308.157    21696304.241
        45.500          44.000    21696308.618    85141147.184 8  21696308.420
        48.250

 123551924.828 7  96095947.589 5  23145428.735    23145437.015    23145428.851
        43.750          32.250    23145436.554
                                                                  92802213.877 6
  23145424.710          38.000
 124354576.131 6  96899704.610 6  23663887.124    23663892.123    23663886.449
        39.750          36.250    23663892.857    92862212.773 6  23663892.118
        41.750

 140627339.181 6                  26760479.658
        39.500                                   105013989.657 6  26760484.858
        39.750   114145616.803 7  26760484.018          44.000   107753468.690 6
  26760482.428          41.500   106383737.746 7  26760483.663          43.750
 126772798.399 6  98784020.796 5  24124053.199    24124057.183    24124052.864
        37.000          33.500    24124058.417


 121963441.715 7  94860464.285 5  22839820.058    22839827.046    22839820.156
        44.250          33.500    22839826.747
                                                                  91576881.831 6
  22839814.571          39.500
 129699023.542 5 100877066.315 4  24305535.326                    24305535.572
        35.250          28.500    24305545.979


 108820107.591 6  84637836.550 6  20349877.838    20349884.607    20349878.344
        41.250          39.500    20349885.501


 107312592.245 8                  20131547.700                    20131547.396
        48.750


 109862490.019 8  85448642.284 7  20559249.529    20559253.922    20559249.632
        51.000          43.250    20559253.730
                                                                  82432883.482 7
  20559241.478          47.000
 121994586.995 7  95060750.62643  23214782.435    23214783.959    23214781.979
        42.000          23.250


 105878571.681 8  82502896.36647  20147965.094    20147962.219    20147963.816
        50.500          46.250


 129318605.931 4                  24191705.512                    24191703.666
        28.250


 24  1  7  0 10  0.0000000  0 26E26G12G22R21G24G11G14E04E21E19E15E13
                                G17G06R22G30E27G15R09R02R20R10R11G13
                                G19R01
 131607910.617 7                  25044124.454
        44.750                                    98278731.971 7  25044127.923
        46.000   106824677.020 8  25044127.320          48.500   100842506.126 7
  25044125.140          46.750    99560623.624 8  25044126.451          49.500
 131229896.503 6 102257081.912 5  24972218.525    24972221.597    24972218.060
        36.500          35.000    24972221.941


 113928175.576 8  88775272.57146  21679785.364    21679784.420    21679784.519
        48.750          38.250


 105353590.381 8  81941837.994 8  19687812.482    19687818.239    19687812.920
        52.250          48.000    19687817.800
                                                                  78938954.319 8
  19687803.734          50.000
 115162695.119 7  89737202.780 7  21914716.158    21914718.586    21914715.868
        45.250          42.250    21914719.337    85998164.641 8  21914719.206
        49.500

 126826041.069 6  98825528.487 6  24134183.786    24134186.455    24134183.541
        39.500          38.000    24134187.054    94707820.295 6  24134190.890
        41.500                                                   126826039.084 6
  24134183.494          39.000
 116979026.687 7  91152561.077 7  22260343.514    22260343.871    22260343.255
        44.500          43.000    22260344.202    87354577.354 7  22260348.154
        47.500                                                   116979039.694 7
  22260343.414          45.000
 140987795.529 6                  26829076.129
        39.000                                   105283142.834 7  26829081.061
        42.250   114438184.522 6  26829078.839          41.750   108029651.108 7
  26829078.411          42.750   106656404.046 7  26829079.584          45.500
 126044037.089 8                  23985356.796
        48.750                                    94123905.235 8  23985359.958
        50.000   102308552.763 8  23985358.938          52.750    96579290.444 8
  23985357.554          51.250    95351601.413 8  23985358.588          53.750
 141554396.823 6                  26936893.564
        36.750                                   105706264.971 5  26936899.454
        35.500   114898089.149 6  26936897.249          38.500   108463806.659 5
  26936896.464          35.250   107085040.889 6  26936897.494          38.500
 144605917.791 6                  27517573.367
        37.000                                   107985042.235 6  27517579.936
        38.250   117374995.188 6  27517576.457          41.000   110802023.701 6
  27517577.286          39.500   109393541.543 6  27517578.459          41.750
 128441273.736 7                  24441529.278
        47.250                                    95914036.551 8  24441533.388
        48.250   104254341.221 8  24441529.900          50.750    98416124.605 8
  24441531.056          49.750    97165083.151 8  24441531.974          52.000
 112898312.090 7  87972828.483 7  21483787.262    21483786.766    21483786.784
        47.750          44.250    21483786.833


 113973106.129 7  88810296.522 7  21688337.288    21688340.789    21688337.074
        46.000          44.000    21688341.603    85109881.718 8  21688340.985
        48.000

 123486500.397 7  96045061.969 5  23133172.227    23133180.014    23133172.258
        44.000          32.250    23133180.131
                                                                  92753072.416 6
  23133168.256          38.250
 124407548.508 6  96940981.766 6  23673967.278    23673972.590    23673966.608
        39.500          36.000    23673973.002    92901770.021 7  23673973.059
        42.250

 140651866.116 6                  26765147.127
        39.500                                   105032305.214 6  26765151.952
        39.750   114165525.025 7  26765150.835          43.250   107772262.045 6
  26765149.795          41.500   106402292.202 7  26765150.936          43.750
 126805242.466 5  98809301.844 5  24130226.648    24130230.829    24130226.300
        35.750          33.250    24130230.981


 122006965.352 7  94894315.981 5  22847970.756    22847975.777    22847971.534
        44.750          32.500    22847975.495
                                                                  91609561.735 6
  22847963.476          39.000
 129702103.386 5 100879461.772 5  24306111.283                    24306112.709
        35.750          30.000    24306120.751


 108856947.515 6  84666489.827 6  20356767.378    20356774.320    20356767.319
        41.250          39.250    20356774.392


 107326198.513 8                  20134100.146                    20134099.784
        48.500


 109827193.834 8  85421189.708 7  20552644.714    20552648.417    20552644.758
        51.750          43.750    20552648.717
                                                                  82406399.801 7
  20552636.300          47.000
 122039030.090 7  95095381.58443  23223239.931    23223241.049    23223239.480
        42.500          23.000


 105885523.393 8  82508313.30447  20149287.861    20149285.013    20149286.578
        50.500          46.000


 129356605.652 4                  24198811.076                    24198809.958
        27.000          21.500    24198826.670


 24  1  7  0 10 15.0000000  0 26E26G12G22R21G24G11G14E04E21E19E15E13
                                G17G06R22G30E27G15R09R02R20R10R11G13
                                G19R01
 131568537.217 7                  25036631.875
        45.000                                    98249329.829 7  25036635.336
        45.750   106792718.141 8  25036634.813          49.000   100812336.957 7
  25036632.557          46.750    99530837.967 8  25036633.886          49.250
 131188450.996 5 102224786.846 5  24964331.045    24964334.689    24964330.580
        35.500          34.500    24964335.695


 113943197.574 8  88786978.03946  21682644.095    21682643.004    21682643.250
        48.750          38.000


 105321585.747 8  81916945.532 7  19681831.808    19681837.381    19681832.152
        52.250          47.750    19681837.028
                                                                  78914974.073 8
  19681822.903          50.000
 115131298.668 7  89712738.050 7  21908742.062    21908743.921    21908741.772
        45.500          42.500    21908744.261    85974719.286 8  21908744.761
        49.250

 126771726.825 6  98783205.811 6  24123846.911    24123850.756    24123846.652
        38.750          38.000    24123851.328    94667261.106 6  24123855.504
        41.500                                                   126771724.827 6
  24123846.856          38.500
 117006784.481 7  91174190.527 7  22265625.368    22265625.976    22265625.109
        44.500          43.250    22265626.307    87375305.573 7  22265630.308
        47.250                                                   117006797.485 7
  22265625.461          44.500
 140997062.026 6                  26830839.607
        39.500                                   105290062.635 7  26830844.267
        42.000   114445706.040 7  26830842.174          42.000   108036751.422 7
  26830841.854          42.750   106663414.102 7  26830842.938          45.250
 126046786.028 8                  23985879.825
        49.000                                    94125958.028 8  23985883.044
        49.750   102310784.051 8  23985882.034          53.000    96581396.788 8
  23985880.623          51.250    95353680.983 8  23985881.670          53.500
 141592091.093 6                  26944066.732
        36.750                                   105734413.291 5  26944072.688
        35.500   114928685.137 6  26944070.216          39.000   108492689.282 5
  26944069.207          35.000   107113556.361 6  26944070.554          38.250
 144639580.812 6                  27523979.454
        37.000                                   108010180.201 6  27523985.884
        37.500   117402319.069 6  27523981.986          41.250   110827817.445 6
  27523983.320          39.750   109419007.398 6  27523984.314          41.750
 128439476.092 7                  24441187.168
        47.250                                    95912694.177 8  24441191.260
        48.000   104252882.108 8  24441187.844          51.000    98414747.215 8
  24441188.852          49.500    97163723.271 8  24441189.881          52.000
 112931844.248 7  87998957.449 7  21490168.224    21490167.678    21490167.746
        47.750          44.250    21490167.964


 113931330.270 7  88777743.957 7  21680387.343    21680391.090    21680387.124
        46.000          44.250    21680391.698    85078685.526 8  21680391.116
        48.000

 123421117.876 7  95994209.012 5  23120923.890    23120932.138    23120923.800
        44.000          32.000    23120932.491
                                                                  92703962.446 6
  23120919.646          38.000
 124460567.304 6  96982295.068 6  23684056.449    23684061.940    23684055.774
        39.750          36.000    23684061.922    92941361.952 7  23684062.086
        42.000

 140676412.301 6                  26769818.238
        39.750                                   105050635.148 6  26769823.144
        39.750   114185448.874 7  26769821.964          43.750   107791070.154 6
  26769820.629          41.250   106420861.225 7  26769821.864          43.500
 126837745.032 6  98834628.509 5  24136411.663    24136415.709    24136411.319
        36.000          33.500    24136415.893


 122050561.387 7  94928223.987 5  22856134.548    22856141.072    22856134.611
        44.000          32.500    22856141.510
                                                                  91642295.994 6
  22856129.026          39.750
 129705346.745 6 100881984.437 4  24306721.740                    24306722.035
        37.500          29.500    24306731.656


 108893945.172 6  84695265.793 6  20363685.577    20363692.882    20363686.078
        41.500          39.500    20363693.566


 107339913.866 8                  20136673.337                    20136672.872
        48.750


 109791950.557 8  85393778.313 7  20546049.111    20546053.137    20546049.299
        51.750          43.500    20546052.971
                                                                  82379955.826 7
  20546040.764          46.750
 122083509.031 7  95130040.50043  23231703.913    23231704.852    23231703.462
        42.250          22.500


 105892579.976 8  82513811.96147  20150630.784    20150627.770    20150629.506
        50.500          45.750


 129394679.825 4                  24205931.979                    24205933.557
        27.250


 24  1  7  0 10 30.0000000  0 26E26G12G22R21G24G11G14E04E21E19E15E13
                                G17G06R22G30E27G15R09R02R20R10R11G13
                                G19R01
 131529217.385 7                  25029149.497
        44.750                                    98219967.691 7  25029152.985
        46.000   106760802.744 8  25029152.466          49.000   100782208.836 7
  25029150.120          46.500    99501092.837 8  25029151.494          49.250
 131146998.509 6 102192486.314 5  24956443.793    24956446.234    24956443.333
        36.000          34.750    24956446.900


 113958249.421 8  88798706.76646  21685508.176    21685507.241    21685507.336
        48.750          38.000


 105289755.893 8  81892189.008 7  19675883.446    19675889.042    19675883.983
        52.500          47.500    19675888.747
                                                                  78891124.792 8
  19675874.694          50.000
 115100013.888 7  89688360.322 7  21902788.406    21902790.476    21902788.111
        45.500          42.500    21902790.632    85951357.316 8  21902791.419
        49.500

 126717419.505 6  98740888.550 6  24113512.586    24113516.011    24113512.354
        38.500          38.250    24113516.060    94626707.088 6  24113520.665
        41.500                                                   126717417.513 6
  24113512.464          38.250
 117034584.001 7  91195852.497 7  22270915.635    22270916.189    22270915.385
        44.500          43.500    22270916.757    87396064.959 7  22270920.449
        47.500                                                   117034597.019 7
  22270915.655          44.500
 141006419.879 6                  26832620.177
        39.250                                   105297050.661 7  26832625.069
        42.250   114453301.718 7  26832623.040          42.000   108043921.730 7
  26832622.509          42.500   106670493.269 7  26832623.695          45.250
 126049557.954 8                  23986407.272
        48.750                                    94128027.984 8  23986410.532
        50.000   102313034.003 8  23986409.589          53.000    96583520.742 8
  23986408.110          51.000    95355777.936 8  23986409.140          53.500
 141629802.104 6                  26951243.008
        36.500                                   105762574.090 6  26951248.696
        36.250   114959294.712 6  26951246.586          39.000   108521584.725 5
  26951244.991          34.500   107142084.482 6  26951246.830          38.250
 144673310.039 6                  27530397.772
        36.250                                   108035367.624 6  27530404.082
        37.500   117429696.714 6  27530400.545          41.250   110853661.924 6
  27530401.571          39.000   109444523.349 6  27530402.761          41.500
 128437788.278 7                  24440865.973
        47.250                                    95911433.820 8  24440870.051
        48.250   104251512.151 8  24440866.720          51.250    98413453.976 8
  24440867.665          49.250    97162446.472 8  24440868.682          51.750
 112965420.536 8  88025120.797 7  21496557.494    21496557.047    21496557.016
        48.000          44.500    21496557.091


 113889645.428 7  88745262.326 7  21672455.052    21672458.710    21672454.833
        46.250          44.500    21672458.983    85047557.314 8  21672458.727
        48.000

 123355775.531 7  95943387.211 5  23108683.070    23108691.426    23108683.553
        44.500          32.500    23108691.582
                                                                  92654882.630 6
  23108678.871          38.250
 124513630.121 6  97023642.702 6  23694154.090    23694159.375    23694153.424
        39.500          36.250    23694159.880    92980986.750 7  23694160.174
        42.500

 140700975.678 6                  26774492.351
        39.500                                   105068977.932 6  26774497.458
        40.000   114205386.670 7  26774496.385          43.750   107809891.438 6
  26774494.951          41.000   106439443.257 7  26774496.124          43.500
 126870303.699 6  98859998.873 5  24142607.683    24142611.291    24142607.308
        36.500          33.750    24142612.405


 122094227.582 7  94962186.557 5  22864311.193    22864318.401    22864311.403
        43.500          33.000    22864317.927
                                                                  91675082.957 6
  22864305.403          39.250
 129708751.296 6 100884632.424 5  24307359.493                    24307359.207
        38.000          30.000    24307368.702


 108931098.075 6  84724162.506 6  20370634.332    20370640.730    20370633.809
        41.250          38.750    20370641.257


 107353736.602 8                  20139266.285                    20139265.735
        48.750


 109756758.513 8  85366406.751 7  20539463.374    20539467.458    20539463.669
        51.750          43.500    20539467.288
                                                                  82353550.294 7
  20539455.094          47.000
 122128021.527 6  95164725.55543  23240173.905    23240175.425    23240173.467
        41.750          22.000


 105899739.090 8  82519390.51147  20151993.056    20151990.069    20151991.778
        50.500          45.750


 129432825.966 4                  24213071.619                    24213070.304
        27.500          21.500    24213074.259


 24  1  7  0 10 45.0000000  0 26E26G12G22R21G24G11G14E04E21E19E15E13
                                G17G06R22G30E27G15R09R02R20R10R11G13
                                G19R01
 131489955.240 7                  25021677.974
        44.500                                    98190648.621 7  25021681.631
        45.500   106728934.169 8  25021680.997          48.750   100752124.915 7
  25021678.745          46.750    99471391.343 8  25021680.092          49.250
 131105542.990 6 102160183.480 5  24948554.374    24948557.553    24948553.896
        36.500          35.250    24948558.268


 113973335.036 8  88810461.80346  21688378.858    21688377.847    21688378.018
        48.500          37.750


 105258105.116 8  81867571.771 7  19669968.512    19669974.318    19669969.210
        52.500          47.500    19669974.255
                                                                  78867409.689 8
  19669959.952          50.000
 115068844.951 7  89664072.877 7  21896856.864    21896859.323    21896856.565
        45.250          42.500    21896859.985    85928081.855 8  21896860.217
        49.750

 126663123.359 6  98698580.003 6  24103180.114    24103183.557    24103179.904
        38.500          38.000    24103184.008    94586161.419 6  24103188.363
        41.750                                                   126663121.370 6
  24103180.632          38.250
 117062429.168 7  91217550.023 7  22276214.359    22276214.975    22276214.105
        44.250          43.250    22276215.092    87416858.415 7  22276219.218
        47.500                                                   117062442.171 7
  22276214.304          44.250
 141015872.817 6                  26834419.128
        39.000                                   105304109.689 7  26834423.962
        42.000   114460974.575 7  26834421.932          42.000   108051164.922 7
  26834421.236          42.500   106677644.381 7  26834422.552          45.250
 126052356.822 8                  23986939.886
        48.500                                    94130118.065 8  23986943.110
        49.500   102315305.820 8  23986942.185          52.750    96585665.347 8
  23986940.711          51.250    95357895.280 8  23986941.731          53.500
 141667533.570 6                  26958423.368
        36.750                                   105790750.176 6  26958428.927
        36.000   114989920.886 6  26958426.861          38.750   108550495.827 5
  26958425.530          34.750   107170628.076 6  26958427.052          38.500
 144707109.196 6                  27536828.644
        36.250                                   108060607.245 6  27536835.454
        37.000   117457131.068 6  27536832.933          41.250   110879559.954 6
  27536833.565          39.250   109470092.172 6  27536834.456          41.250
 128436214.203 7                  24440566.359
        47.250                                    95910258.399 7  24440570.505
        47.750   104250234.507 8  24440567.120          51.000    98412247.885 8
  24440568.097          49.500    97161255.716 8  24440569.135          51.750
 112999044.725 8  88051321.479 7  21502956.090    21502955.446    21502955.608
        48.000          44.000    21502955.580


 113848055.878 7  88712854.941 7  21664540.986    21664544.442    21664540.772
        46.250          44.250    21664545.126    85016500.248 8  21664544.459
        48.000

 123290477.788 7  95892600.123 5  23096450.928    23096458.590    23096450.897
        44.500          32.500    23096459.932
                                                                  92605836.341 6
  23096446.313          38.250
 124566740.585 6  97065027.437 6  23704260.666    23704266.104    23704260.000
        39.750          36.000    23704266.797    93020647.122 7  23704266.170
        42.250

 140725560.201 6                  26779170.656
        39.500                                   105087336.509 6  26779175.700
        39.750   114225341.651 7  26779174.426          43.500   107828728.937 6
  26779173.005          41.000   106458041.298 7  26779174.438          43.250
 126902922.043 6  98885415.728 5  24148815.175    24148818.193    24148814.809
        37.000          33.500    24148818.207


 122137967.674 7  94996206.613 5  22872501.711    22872507.881    22872502.252
        42.750          31.250    22872507.627
                                                                  91707925.412 6
  22872496.162          38.750
 129712320.831 6 100887408.750 4  24308028.276                    24308028.625
        37.750          28.500    24308037.356


 108968409.595 6  84753182.582 6  20377611.345    20377618.024    20377611.113
        41.250          39.000    20377618.574


 107367670.626 8                  20141880.166                    20141879.960
        48.750


 109721621.860 8  85339078.267 7  20532887.807    20532891.851    20532888.031
        51.500          43.250    20532891.887
                                                                  82327186.318 7
  20532879.617          47.000
 122172570.998 6  95199439.41943  23248651.649    23248653.384    23248651.189
        41.500          22.000


 105907004.431 8  82525051.83647  20153375.564    20153372.644    20153374.286
        50.500          45.750


 129471047.293 4                  24220222.529                    24220219.332
        26.250


 24  1  7  0 11  0.0000000  0 26E26G12G22R21G24G11G14E04E21E19E15E13
                                G17G06R22G30E27G15R09R02R20R10R11G13
                                G19R01
 131450745.552 7                  25014216.530
        44.500                                    98161368.733 7  25014220.143
        45.750   106697108.173 8  25014219.553          48.500   100722081.195 7
  25014217.247          46.750    99441729.538 8  25014218.670          49.250
 131064079.021 6 102127873.978 5  24940663.802    24940667.044    24940663.320
        36.250          34.750    24940668.077


 113988449.035 8  88822238.96046  21691254.938    21691253.887    21691254.098
        48.750          38.000


 105226627.924 8  81843089.547 8  19664086.544    19664092.068    19664086.955
        52.500          48.000    19664091.875
                                                                  78843824.643 8
  19664077.653          50.250
 115037786.648 7  89639871.637 7  21890946.734    21890949.152    21890946.435
        45.250          42.500    21890949.367    85904889.018 8  21890949.916
        49.500

 126608833.268 6  98656276.120 6  24092849.557    24092852.248    24092849.343
        39.000          38.250    24092853.353    94545620.246 6  24092856.701
        41.500                                                   126608831.248 6
  24092849.520          38.500
 117090314.513 7  91239278.851 7  22281520.828    22281521.369    22281520.574
        44.250          43.250    22281521.418    87437681.881 7  22281525.665
        47.500                                                   117090327.518 7
  22281520.818          44.500
 141025415.279 6                  26836234.597
        38.500                                   105311235.575 7  26836239.887
        42.250   114468720.093 7  26836237.884          42.000   108058476.710 7
  26836237.148          42.750   106684863.217 7  26836238.442          45.500
 126055177.232 8                  23987476.529
        48.750                                    94132224.230 8  23987479.812
        49.750   102317595.127 8  23987478.667          52.500    96587826.450 8
  23987477.377          51.250    95360028.914 8  23987478.424          53.500
 141705279.773 6                  26965606.314
        37.250                                   105818937.248 6  26965611.850
        36.750   115020559.029 6  26965609.481          38.250   108579418.229 5
  26965608.494          35.750   107199182.815 6  26965610.074          39.250
 144740972.533 6                  27543272.976
        36.250                                   108085894.806 6  27543279.576
        37.000   117484617.541 6  27543276.760          41.000   110905507.177 6
  27543277.772          39.500   109495709.564 6  27543278.319          41.250
 128434748.364 7                  24440287.513
        47.250                                    95909163.807 8  24440291.506
        48.000   104249044.729 8  24440288.193          50.750    98411124.738 8
  24440289.049          49.500    97160146.846 8  24440290.177          52.000
 113032711.007 8  88077554.956 7  21509362.749    21509361.796    21509362.271
        48.000          44.000    21509361.966


 113806556.485 7  88680517.824 7  21656643.773    21656647.364    21656643.554
        46.000          44.500    21656647.896    84985510.526 8  21656647.291
        48.000

 123225219.538 7  95841843.804 5  23084225.892    23084233.563    23084225.583
        44.500          31.500    23084234.739
                                                                  92556819.729 6
  23084221.138          38.500
 124619892.934 6  97106444.828 5  23714375.418    23714380.502    23714374.752
        39.500          35.750    23714380.744    93060338.783 7  23714381.507
        42.750

 140750160.447 6                  26783852.310
        39.500                                   105105706.836 6  26783856.733
        39.750   114245309.384 7  26783855.843          43.250   107847578.489 6
  26783854.637          41.000   106476651.236 7  26783855.698          43.500
 126935594.051 6  98910874.435 5  24155031.772    24155035.246    24155031.397
        37.000          33.750    24155035.819


 122181776.170 7  95030279.878 5  22880706.843    22880713.425    22880707.232
        43.500          32.750    22880714.328
                                                                  91740819.211 6
  22880701.191          39.500
 129716049.509 6 100890308.825 4  24308725.723                    24308726.819
        36.500          29.250    24308735.527


 109005873.862 6  84782321.458 6  20384616.995    20384624.234    20384617.393
        41.250          39.000    20384625.392


 107381710.553 8                  20144514.269                    20144513.786
        48.750


 109686535.478 8  85311788.871 7  20526322.016    20526326.011    20526322.338
        51.500          43.500    20526326.324
                                                                  82300860.064 7
  20526313.853          47.000
 122217151.725 6  95234177.62343  23257134.840    23257136.807    23257134.384
        41.250          22.250


 105914370.465 8  82530791.62247  20154777.194    20154774.372    20154775.916
        50.250          45.750


                                                                  24227381.574
                        19.250    24227417.013


 24  1  7  0 11 15.0000000  0 26E26G12G22R21G24G11G14E04E21E19E15E13
                                G17G06R22G30E27G15R09R02R20R10R11G13
                                G19R01
 131411594.521 7                  25006766.509
        44.500                                    98132132.646 7  25006769.876
        46.000   106665329.791 8  25006769.264          48.750   100692082.420 7
  25006767.097          46.750    99412112.107 8  25006768.435          49.500
 131022612.436 6 102095562.524 5  24932772.741    24932776.023    24932772.250
        36.500          34.250    24932776.569


 114003597.443 8  88834042.92646  21694137.532    21694136.413    21694136.692
        48.750          38.000


 105195330.728 8  81818747.316 8  19658237.909    19658243.424    19658238.124
        52.500          48.000    19658243.348
                                                                  78820374.468 8
  19658229.032          50.250
 115006845.218 7  89615761.457 7  21885058.919    21885061.132    21885058.624
        45.500          42.500    21885061.262    85881783.437 8  21885061.748
        49.500

 126554555.454 6  98613981.859 6  24082520.419    24082523.554    24082520.191
        39.250          38.250    24082523.549    94505088.256 6  24082528.235
        41.750                                                   126554553.464 6
  24082520.875          39.000
 117118246.039 7  91261043.674 7  22286835.801    22286836.597    22286835.547
        44.500          43.250    22286836.767    87458539.835 7  22286840.951
        47.750                                                   117118259.044 7
  22286835.760          44.500
 141035053.127 6                  26838068.676
        38.250                                   105318432.699 7  26838073.782
        42.250   114476543.034 7  26838071.699          42.000   108065861.556 7
  26838071.262          42.750   106692154.202 7  26838072.422          45.750
 126058025.208 8                  23988018.568
        48.500                                    94134350.980 8  23988021.690
        50.000   102319906.804 8  23988020.608          52.750    96590008.678 8
  23988019.367          51.250    95362183.402 8  23988020.365          53.750
 141743046.309 6                  26972792.786
        36.500                                   105847139.518 6  26972798.756
        37.000   115051213.694 6  26972796.114          38.250   108608356.250 6
  26972795.418          36.250   107227752.959 6  26972796.935          39.500
 144774905.817 6                  27549730.887
        36.250                                   108111234.603 6  27549737.263
        37.500   117512160.796 6  27549734.107          41.500   110931508.003 6
  27549734.967          39.250   109521379.878 6  27549735.545          41.500
 128433396.745 7                  24440030.227
        47.250                                    95908154.506 8  24440034.251
        48.250   104247947.650 8  24440030.992          51.000    98410089.110 8
  24440031.825          49.500    97159124.382 8  24440032.971          52.000
 113066424.791 8  88103825.444 7  21515778.259    21515777.298    21515777.781
        48.250          44.250    21515777.584


 113765153.621 7  88648255.915 7  21648765.009    21648768.631    21648764.781
        46.500          44.500    21648769.552    84954592.877 8  21648768.563
        48.000

 123160007.207 7  95791123.179 5  23072009.193    23072017.271    23072009.028
        44.250          32.500    23072017.070
                                                                  92507837.603 6
  23072004.390          38.500
 124673092.862 6  97147899.272 5  23724499.326    23724504.092    23724498.651
        39.750          35.250    23724504.580    93100065.956 7  23724504.306
        42.250

 140774782.435 6                  26788537.289
        39.250                                   105124093.369 6  26788542.316
        40.000   114265294.762 7  26788541.225          43.500   107866444.678 6
  26788539.648          41.000   106495277.599 7  26788541.089          43.500
 126968325.317 6  98936379.316 5  24161261.008    24161264.299    24161260.642
        37.500          34.750    24161265.198


 122225658.993 7  95064410.964 5  22888925.732    22888930.901    22888925.983
        44.000          33.000    22888932.354
                                                                  91773768.838 6
  22888917.916          38.500
 129719943.386 6 100893337.476 5  24309456.898                    24309457.109
        37.250          30.250    24309465.607


 109043496.410 6  84811583.442 6  20391653.364    20391659.775    20391652.827
        41.500          39.000    20391660.436


 107395862.628 8                  20147168.903                    20147168.702
        48.750


 109651505.698 8  85284543.517 7  20519766.428    20519770.681    20519766.723
        51.500          43.500    20519770.328
                                                                  82274576.286 7
  20519758.318          47.000
 122261769.221 6  95268944.48743  23265625.264    23265627.191    23265624.826
        41.250          22.250


 105921843.027 8  82536614.42147  20156199.252    20156196.390    20156197.974
        50.500          46.000


                                  24234566.597
        24.000


 24  1  7  0 11 30.0000000  0 26E26G12G22R21G24G11G14E04E21E19E15E13
                                G17G06R22G30E27G15R09R02R20R10R11G13
                                G19R01
 131372499.869 7                  24999327.084
        44.750                                    98102938.648 7  24999330.321
        46.000   106633597.166 8  24999329.825          48.750   100662126.838 7
  24999327.564          46.750    99382537.318 8  24999328.916          49.500
 130981140.852 6 102063247.198 5  24924881.342    24924883.922    24924880.851
        37.000          34.750    24924885.080


 114018777.849 8  88845871.82746  21697026.553    21697024.987    21697025.717
        49.000          38.000


 105164211.318 8  81794543.378 7  19652422.532    19652427.971    19652422.657
        52.500          47.000    19652428.007
                                                                  78797057.507 8
  19652413.636          50.250
 114976018.423 7  89591740.606 7  21879192.351    21879195.056    21879192.052
        45.250          43.000    21879195.700    85858763.465 8  21879195.654
        49.500

 126500287.825 6  98571695.519 6  24072193.967    24072196.927    24072193.726
        39.250          38.250    24072197.544    94464563.861 6  24072201.107
        41.750                                                   126500285.834 6
  24072193.877          38.750
 117146221.278 7  91282842.562 7  22292159.339    22292160.072    22292159.080
        44.500          43.000    22292160.452    87479430.418 7  22292164.315
        47.500                                                   117146234.285 7
  22292159.440          44.500
 141044783.680 6                  26839920.374
        38.750                                   105325699.038 7  26839925.414
        42.250   114484441.236 6  26839923.080          41.750   108073317.465 7
  26839922.952          42.750   106699515.325 7  26839924.044          45.500
 126060898.320 8                  23988565.188
        48.500                                    94136496.501 8  23988568.354
        50.000   102322238.885 8  23988567.393          52.750    96592210.165 8
  23988566.143          51.000    95364356.907 8  23988567.096          53.750
 141780830.377 6                  26979983.102
        36.000                                   105875354.855 6  26979988.714
        37.250   115081882.546 6  26979985.995          37.750   108637307.642 6
  26979985.666          36.500   107256336.322 6  26979987.130          40.000
 144808906.342 6                  27556200.425
        36.750                                   108136624.580 6  27556207.043
        37.250   117539758.619 6  27556203.945          41.500   110957560.343 6
  27556204.680          38.250   109547101.036 6  27556205.589          40.750
 128432156.865 7                  24439794.308
        47.250                                    95907228.646 8  24439798.261
        48.250   104246941.273 8  24439794.845          51.000    98409139.087 8
  24439795.866          49.250    97158186.439 8  24439797.021          52.000
 113100183.666 8  88130131.067 7  21522202.402    21522201.485    21522201.920
        48.250          44.250    21522201.798


 113723845.110 7  88616067.514 7  21640904.415    21640907.795    21640904.187
        46.500          44.500    21640908.457    84923745.685 8  21640907.736
        48.000

 123094838.726 7  95740436.660 5  23059800.018    23059808.937    23059800.331
        43.500          30.750    23059808.105
                                                                  92458888.429 6
  23059796.078          38.500
 124726337.582 6  97189388.637 5  23734630.466    23734636.060    23734629.773
        39.000          35.500    23734637.120    93139826.589 7  23734636.940
        42.500

 140799423.665 6                  26793226.179
        39.500                                   105142494.299 6  26793231.317
        40.250   114285295.768 7  26793230.289          43.500   107885325.623 6
  26793228.900          41.000   106513918.535 7  26793230.189          43.500
 127001113.065 6  98961928.192 5  24167500.057    24167503.706    24167499.695
        37.000          34.250    24167503.683


 122269613.434 7  95098597.687 5  22897155.695    22897161.919    22897156.831
        43.500          31.750    22897162.912
                                                                  91806772.194 6
  22897149.824          39.000
 129724000.009 6 100896492.652 4  24310217.082                    24310217.503
        37.750          29.750    24310226.475


 109081273.812 6  84840965.883 6  20398717.454    20398724.562    20398717.637
        41.500          38.750    20398724.253


 107410124.350 8                  20149844.663                    20149844.176
        48.750


 109616530.286 8  85257340.456 7  20513221.608    20513225.500    20513221.729
        51.500          42.500    20513225.097
                                                                  82248333.297 7
  20513213.029          47.000
 122306420.640 6  95303737.78343  23274122.514    23274123.801    23274122.085
        41.750          22.250


 105929419.360 8  82542518.07847  20157641.006    20157638.117    20157639.728
        50.750          46.000


                                  24241746.703
        26.000


 24  1  7  0 11 45.0000000  0 26E26G12G22R21G24G11G14E04E21E19E15E13
                                G17G06R22G30E27G15R09R02R20R10R11G13
                                G19R01
 131333462.333 7                  24991898.484
        44.500                                    98073787.314 7  24991901.672
        46.000   106601910.903 8  24991901.167          48.750   100632215.023 7
  24991898.919          46.500    99353005.743 8  24991900.253          49.250
 130939664.917 6 102030928.410 5  24916988.525    24916991.476    24916988.034
        36.750          35.000    24916992.460


 114033990.748 8  88857726.04546  21699921.373    21699919.857    21699920.533
        49.000          37.750


 105133270.330 8  81770478.203 7  19646640.311    19646645.831    19646640.580
        52.500          47.000    19646645.853
                                                                  78773874.225 8
  19646631.527          50.000
 114945307.041 7  89567809.696 7  21873348.498    21873350.948    21873348.203
        45.500          43.250    21873351.359    85835829.689 8  21873351.461
        49.500

 126446031.233 6  98529417.753 6  24061868.605    24061872.271    24061868.342
        38.250          39.000    24061872.513    94424047.705 6  24061876.246
        41.500                                                   126446029.225 6
  24061868.595          38.250
 117174240.749 7  91304675.903 7  22297491.623    22297492.038    22297491.360
        44.500          43.250    22297492.132    87500354.043 7  22297496.205
        47.250                                                   117174253.749 7
  22297491.568          44.750
 141054607.380 6                  26841789.533
        38.000                                   105333034.938 7  26841794.734
        42.250   114492415.026 6  26841792.512          41.750   108080844.727 7
  26841792.245          42.500   106706946.905 7  26841793.364          45.500
 126063797.137 8                  23989116.878
        48.250                                    94138661.212 8  23989119.897
        50.000   102324591.833 8  23989118.953          53.000    96594431.352 8
  23989117.721          51.000    95366549.856 8  23989118.706          53.500
 141818632.192 5                  26987176.399
        35.500                                   105903583.445 6  26987182.149
        37.500   115112565.812 6  26987179.641          37.500   108666272.657 6
  26987179.308          36.750   107284933.127 6  26987180.668          40.000
 144842974.381 6                  27562683.803
        36.750                                   108162065.011 6  27562690.077
        37.500   117567411.242 6  27562687.112          41.500   110983664.439 6
  27562687.628          38.250   109572873.299 6  27562688.573          40.750
 128431029.194 7                  24439579.642
        47.000                                    95906386.575 8  24439583.702
        48.250   104246025.973 8  24439580.188          50.750    98408275.053 8
  24439581.245          49.250    97157333.388 8  24439582.413          51.750
 113133987.538 8  88156471.760 7  21528635.152    21528634.181    21528634.674
        48.250          44.250    21528634.302


 113682631.827 7  88583953.346 7  21633061.519    21633065.064    21633061.291
        46.500          44.250    21633065.400    84892969.603 8  21633065.063
        48.000

 123029715.177 7  95689785.098 5  23047600.281    23047608.766    23047600.344
        42.500          30.750    23047608.243
                                                                  92409972.993 6
  23047596.077          38.250
 124779627.321 6  97230913.077 6  23744772.481    23744777.033    23744771.788
        39.500          36.000    23744777.431    93179620.837 7  23744777.407
        42.250

 140824084.744 6                  26797919.490
        39.250                                   105160910.022 6  26797924.208
        40.250   114305312.861 7  26797923.149          43.500   107904221.757 6
  26797921.947          40.750   106532574.463 7  26797923.017          43.500
 127033957.322 6  98987521.114 5  24173750.106    24173753.656    24173749.758
        36.500          34.500    24173754.067


 122313639.907 7  95132840.489 5  22905399.112    22905408.180    22905399.099
        42.250          33.000    22905409.173
                                                                  91839829.672 6
  22905394.873          38.500
 129728219.333 6 100899774.360 4  24311008.299                    24311007.852
        37.500          28.750    24311014.275


 109119206.833 6  84870469.362 6  20405811.480    20405818.231    20405811.498
        41.750          38.750    20405818.844


 107424496.360 8                  20152540.903                    20152540.398
        48.750


 109581610.154 8  85230180.367 7  20506686.850    20506690.732    20506686.935
        51.750          42.500    20506690.254
                                                                  82222131.774 7
  20506678.105          46.750
 122351105.778 6  95338557.34143  23282625.647    23282627.351    23282625.209
        41.250          22.500


 105937099.910 8  82548502.94247  20159102.577    20159099.648    20159101.299
        50.500          45.750


                                  24248953.518
        24.500


 24  1  7  0 12  0.0000000  0 26E26G12G22R21G24G11G14E04E21E19E15E13
                                G17G06R22G30E27G15R09R02R20R10R11G13
                                G19R01
 131294481.079 7                  24984480.459
        44.750                                    98044678.010 7  24984483.857
        46.250   106570270.324 8  24984483.155          48.500   100602346.335 7
  24984481.082          47.000    99323516.747 8  24984482.286          49.750
 130898183.464 6 101998605.347 5  24909094.993    24909098.087    24909094.511
        36.750          35.250    24909097.814


 114049235.148 8  88869604.80946  21702822.198    21702820.767    21702821.358
        48.750          37.750


 105102506.974 8  81746551.185 7  19640891.462    19640897.049    19640891.753
        52.000          47.250    19640897.169
                                                                  78750824.040 8
  19640882.643          50.000
 114914710.259 7  89543968.080 7  21867526.203    21867528.604    21867525.908
        45.500          43.500    21867528.836    85812981.478 8  21867528.916
        49.250

 126391784.904 6  98487147.998 6  24051545.872    24051549.454    24051545.631
        38.750          38.750    24051549.297    94383539.196 6  24051553.840
        41.750                                                   126391782.905 6
  24051546.319          38.750
 117202303.387 7  91326542.899 7  22302831.920    22302832.192    22302831.657
        44.750          43.500    22302832.782    87521309.909 7  22302836.274
        47.250                                                   117202316.395 7
  22302831.905          44.750
 141064522.965 6                  26843676.633
        38.250                                   105340439.465 7  26843681.614
        42.000   114500463.423 6  26843679.732          41.750   108088442.410 7
  26843679.086          43.000   106714448.012 7  26843680.236          45.500
 126066720.634 8                  23989673.259
        48.750                                    94140844.362 8  23989676.210
        49.750   102326964.811 8  23989675.267          52.500    96596671.447 8
  23989673.990          51.500    95368761.479 8  23989675.037          53.750
 141856450.562 5                  26994372.955
        35.250                                   105931824.409 6  26994378.814
        37.250   115143262.524 6  26994376.100          36.250   108695250.346 6
  26994376.079          37.750   107313542.452 6  26994377.395          40.500
 144877108.622 6                  27569179.424
        37.000                                   108187554.902 6  27569185.648
        37.000   117595117.618 6  27569182.613          41.250   111009819.252 6
  27569183.093          38.750   109598695.650 6  27569184.037          41.000
 128430012.672 7                  24439386.172
        47.000                                    95905627.509 8  24439390.214
        48.250   104245200.888 8  24439386.700          50.500    98407496.185 8
  24439387.810          49.750    97156564.422 8  24439388.970          52.000
 113167835.205 8  88182846.575 7  21535076.022    21535075.092    21535075.544
        48.000          44.250    21535075.177


 113641513.058 7  88551912.811 7  21625236.916    21625240.251    21625236.688
        46.250          44.750    21625240.971    84862264.105 8  21625240.322
        48.000

 122964635.678 7  95639167.793 5  23035408.942    23035416.734    23035409.103
        43.250          31.750    23035415.491
                                                                  92361090.668 6
  23035404.542          38.250
 124832960.735 6  97272471.563 6  23754920.478    23754925.804    23754919.776
        38.750          36.000    23754926.448    93219447.685 7  23754926.496
        42.500

 140848764.601 6                  26802615.838
        39.250                                   105179339.790 6  26802620.873
        40.000   114325345.224 7  26802619.567          43.000   107923132.316 6
  26802618.192          41.250   106551244.626 7  26802619.418          43.500
 127066856.621 6  99013156.891 5  24180010.595    24180014.190    24180010.256
        37.250          35.000    24180014.700


 122357737.156 7  95167138.375 5  22913657.518    22913664.154    22913658.211
        42.250          31.000    22913664.574
                                                                  91872940.311 6
  22913651.907          38.500
 129732600.262 6 100903181.812 4  24311828.907                    24311828.867
        36.750          28.000    24311836.520


 109157293.732 6  84900092.511 6  20412933.285    20412940.268    20412933.620
        41.750          38.750    20412941.681


 107438977.674 8                  20155257.287                    20155257.023
        48.750


 109546744.471 8  85203062.648 7  20500162.246    20500165.945    20500162.550
        52.000          43.000    20500165.646
                                                                  82195971.125 7
  20500153.474          46.750
 122395823.302 6  95373402.13943  23291134.818    23291136.879    23291134.407
        41.000          22.250


 105944883.242 8  82554567.89847  20160583.640    20160580.733    20160582.362
        50.500          45.750


                                  24256168.435
        26.750


 24  1  7  0 12 15.0000000  0 26E26G12G22R21G24G11G14E04E21E19E15E13
                                G17G06R22G30E27G15R09R02R20R10R11G13
                                G19R01
 131255555.517 7                  24977073.016
        44.750                                    98015610.289 7  24977076.530
        46.000   106538674.949 8  24977075.779          48.750   100572520.316 7
  24977073.845          46.750    99294069.877 8  24977074.941          49.500
 130856695.796 6 101966277.380 5  24901199.642    24901203.022    24901199.155
        36.750          35.000    24901202.915


 114064510.290 8  88881507.52946  21705729.080    21705727.587    21705728.240
        48.750          37.750


 105071920.653 8  81722761.865 7  19635175.553    19635181.059    19635175.964
        52.000          47.000    19635180.996
                                                                  78727906.507 8
  19635166.792          50.000
 114884227.559 7  89520215.366 7  21861725.682    21861727.984    21861725.392
        45.250          43.250    21861728.123    85790218.459 8  21861728.216
        49.250

 126337548.418 6  98444885.921 6  24041224.680    24041228.829    24041224.457
        38.750          38.750    24041228.655    94343038.072 7  24041232.696
        42.000                                                   126337546.427 6
  24041225.050          38.750
 117230408.466 7  91348442.952 7  22308179.807    22308180.383    22308179.548
        44.250          43.250    22308180.392    87542297.457 7  22308184.545
        47.500                                                   117230421.467 7
  22308179.810          44.750
 141074529.553 6                  26845580.646
        38.500                                   105347911.934 6  26845585.721
        41.500   114508585.666 7  26845583.687          42.000   108096109.812 7
  26845583.291          42.750   106722017.946 7  26845584.401          45.250
 126069668.092 8                  23990234.176
        48.750                                    94143045.392 8  23990237.042
        49.750   102329357.231 8  23990236.148          52.750    96598929.898 8
  23990234.853          51.000    95370991.219 8  23990235.905          53.500
 141894284.417 5                  27001572.533
        34.750                                   105960076.952 6  27001578.538
        37.500   115173971.824 6  27001575.628          36.500   108724239.915 6
  27001575.705          37.250   107342163.507 6  27001577.048          40.250
 144911308.057 6                  27575687.580
        37.500                                   108213093.432 6  27575693.564
        37.000   117622876.897 6  27575690.523          41.500   111036024.025 6
  27575691.294          38.250   109624567.301 6  27575691.948          40.500
 128429106.495 7                  24439213.787
        47.250                                    95904950.848 8  24439217.731
        48.000   104244465.376 8  24439214.324          50.750    98406801.865 8
  24439215.390          49.250    97155878.930 8  24439216.522          51.750
 113201725.724 7  88209254.776 7  21541525.047    21541524.183    21541524.569
        47.750          44.000    21541524.487


 113600488.370 7  88519945.580 7  21617430.300    21617433.403    21617430.068
        46.250          44.500    21617433.997    84831628.858 8  21617433.478
        48.250

 122899600.041 7  95588584.652 5  23023225.551    23023233.129    23023225.363
        43.500          30.750    23023233.241
                                                                  92312241.278 6
  23023220.645          38.250
 124886336.719 6  97314063.213 5  23765077.689    23765083.176    23765076.987
        38.250          35.750    23765083.681    93259306.345 7  23765083.443
        42.750

 140873462.528 6                  26807315.769
        39.500                                   105197783.051 6  26807320.647
        40.000   114345392.224 7  26807319.342          43.000   107942056.690 6
  26807318.092          40.750   106569928.443 7  26807319.247          43.500
 127099809.691 6  99038834.613 5  24186281.872    24186285.078    24186281.542
        37.750          35.000    24186285.141


 122401904.595 7  95201490.764 5  22921930.159    22921937.054    22921930.352
        43.250          32.000    22921937.734
                                                                  91906103.625 6
  22921924.405          39.250
 129737141.936 5 100906714.257 4  24312678.950                    24312678.301
        35.750          28.500    24312687.810


 109195532.533 6  84929833.811 6  20420084.706    20420091.314    20420084.407
        41.750          38.250    20420091.488


 107453567.588 8                  20157994.502                    20157993.805
        48.500


 109511932.821 8  85175986.974 7  20493647.678    20493651.413    20493647.746
        52.000          42.250    20493651.431
                                                                  82169851.016 7
  20493638.974          46.750
 122440572.127 6  95408271.33743  23299650.161    23299652.561    23299649.755
        41.250          22.750


 105952768.541 8  82560712.30747  20162084.205    20162081.218    20162082.927
        50.250          45.750


                                  24263404.733
        27.750


 24  1  7  0 12 30.0000000  0 26E26G12G22R21G24G11G14E04E21E19E15E13
                                G17G06R22G30E27G15R09R02R20R10R11G13
                                G19R01
 131216688.513 7                  24969676.808
        44.500                                    97986586.299 7  24969680.332
        46.500   106507127.115 8  24969679.625          49.000   100542739.178 7
  24969677.601          47.000    99264667.312 8  24969678.729          49.750
 130815204.454 6 101933946.616 5  24893304.571    24893307.281    24893304.093
        37.000          34.500    24893308.095


 114079818.812 8  88893436.25946  21708642.092    21708640.669    21708641.252
        48.500          37.500


 105041514.343 8  81699112.550 7  19629493.555    19629498.994    19629493.864
        52.250          47.250    19629498.833
                                                                  78705123.849 8
  19629484.592          50.000
 114853861.814 7  89496553.771 7  21855947.115    21855949.498    21855946.820
        45.250          43.500    21855950.030    85767542.779 8  21855949.913
        49.250

 126283324.739 6  98402633.801 6  24030906.352    24030909.826    24030906.169
        38.750          38.250    24030910.072    94302546.469 7  24030914.422
        42.000                                                   126283322.746 6
  24030906.615          38.750
 117258558.581 7  91370378.104 7  22313536.671    22313537.239    22313536.412
        44.250          43.500    22313537.690    87563318.645 7  22313541.361
        47.250                                                   117258571.589 7
  22313536.647          44.750
 141084629.647 6                  26847502.656
        38.250                                   105355454.236 7  26847507.476
        42.000   114516783.820 7  26847505.697          42.250   108103848.853 7
  26847505.118          42.750   106729658.619 7  26847506.277          45.250
 126072642.184 8                  23990799.960
        48.500                                    94145266.324 8  23990803.073
        50.000   102331771.284 8  23990802.174          53.000    96601208.769 8
  23990800.803          51.250    95373241.120 8  23990801.842          53.750
 141932136.125 5                  27008775.355
        34.250                                   105988342.787 6  27008781.369
        38.000   115204695.593 6  27008778.342          36.250   108753243.125 6
  27008778.800          38.000   107370798.030 6  27008780.031          41.000
 144945575.116 6                  27582208.686
        37.250                                   108238682.490 6  27582214.503
        37.500   117650691.079 6  27582211.293          41.750   111062280.590 6
  27582211.983          38.250   109650490.113 6  27582212.718          40.750
 128428313.295 7                  24439062.824
        47.000                                    95904358.545 8  24439066.813
        48.500   104243821.564 8  24439063.343          51.000    98406194.110 8
  24439064.454          49.500    97155278.901 8  24439065.559          52.000
 113235661.448 7  88235698.199 7  21547982.829    21547981.975    21547982.351
        47.750          44.000    21547982.511


 113559560.757 7  88488053.997 7  21609641.819    21609645.047    21609641.587
        46.250          44.500    21609645.785    84801066.106 8  21609645.140
        48.000

 122834611.203 7  95538037.871 5  23011050.230    23011057.982    23011050.494
        43.000          31.000    23011059.001
                                                                  92263427.064 6
  23011046.277          38.500
 124939757.674 6  97355689.865 5  23775243.337    23775248.734    23775242.644
        38.250          35.250    23775249.011    93299198.563 7  23775249.815
        43.000

 140898181.156 6                  26812019.548
        39.500                                   105216241.770 6  26812024.472
        40.250   114365456.052 7  26812022.813          43.000   107960996.945 6
  26812021.956          40.750   106588627.931 7  26812023.031          43.500
 127132818.974 6  99064556.087 5  24192563.209    24192566.446    24192562.879
        38.250          35.500    24192566.773


 122446144.503 7  95235899.555 5  22930214.904    22930221.199    22930214.863
        44.000          32.250    22930220.117
                                                                  91939321.357 6
  22930208.304          38.750
 129741846.754 6 100910373.622 4  24313562.765                    24313562.488
        37.000          27.000    24313568.826


 109233926.008 6  84959695.406 6  20427264.083    20427271.214    20427263.985
        41.500          38.500    20427271.929


 107468268.988 8                  20160752.370                    20160751.883
        48.500


 109477178.152 8  85148955.609 7  20487143.475    20487147.487    20487143.908
        52.000          42.750    20487147.393
                                                                  82143773.654 7
  20487135.226          47.000
 122485354.435 6  95443166.61843  23308172.254    23308174.235    23308171.839
        41.250          22.500


 105960758.239 8  82566938.06347  20163604.399    20163601.546    20163603.121
        50.250          45.500


                                  24270643.708
        25.250


 24  1  7  0 12 45.0000000  0 26E26G12G22R21G24G11G14E04E21E19E15E13
                                G17G06R22G30E27G15R09R02R20R10R11G13
                                G19R01
 131177879.095 7                  24962291.490
        44.750                                    97957605.327 7  24962295.135
        46.250   106475626.016 8  24962294.411          49.000   100513002.165 7
  24962292.364          47.250    99235308.321 8  24962293.488          49.750
 130773708.249 6 101901612.055 5  24885407.414    24885410.593    24885406.936
        36.250          34.250    24885411.581


 114095159.596 8  88905390.12446  21711561.391    21711559.929    21711560.551
        48.500          37.750


 105011287.148 8  81675602.539 7  19623844.859    19623850.177    19623845.109
        52.000          47.500    19623850.146
                                                                  78682475.399 8
  19623835.860          50.000
 114823612.085 7  89472982.598 7  21850190.679    21850193.210    21850190.389
        45.500          43.750    21850193.943    85744953.734 8  21850193.419
        49.250

 126229113.003 6  98360390.991 6  24020590.753    24020593.816    24020590.570
        39.250          38.500    24020594.000    94262063.792 7  24020598.166
        42.000                                                   126229110.993 6
  24020590.829          38.750
 117286752.581 7  91392347.447 7  22318902.141    22318902.552    22318901.882
        44.500          43.500    22318902.578    87584372.596 7  22318906.508
        47.500                                                   117286765.581 7
  22318902.000          44.750
 141094821.864 6                  26849441.950
        38.750                                   105363065.337 6  26849447.110
        41.500   114525056.736 7  26849445.421          42.250   108111658.507 7
  26849444.684          42.750   106737368.997 7  26849445.728          45.000
 126075641.804 8                  23991371.023
        48.750                                    94147506.318 8  23991373.903
        49.750   102334206.052 8  23991373.054          53.000    96603507.191 8
  23991371.526          51.250    95375510.329 8  23991372.641          53.500
 141970004.095 5                  27015981.500
        34.250                                   106016620.784 6  27015987.341
        37.250   115235432.569 5  27015984.242          35.750   108782258.826 6
  27015984.646          38.000   107399444.881 6  27015986.069          40.750
 144979908.358 6                  27588741.959
        37.500                                   108264320.947 6  27588748.113
        37.750   117678558.962 6  27588744.647          41.500   111088587.906 6
  27588745.119          38.000   109676463.000 6  27588746.108          40.750
 128427631.857 7                  24438933.214
        47.250                                    95903849.702 8  24438937.074
        48.250   104243268.459 8  24438933.631          51.000    98405671.991 8
  24438934.750          49.500    97154763.421 8  24438935.869          52.000
 113269640.825 7  88262175.647 7  21554448.997    21554448.089    21554448.519
        47.750          44.000    21554448.317


 113518729.366 7  88456237.387 7  21601871.790    21601875.080    21601871.562
        46.250          44.500    21601875.894    84770575.195 8  21601875.263
        48.250

 122769668.520 7  95487526.974 5  22998885.065    22998892.102    22998885.079
        43.250          30.000    22998893.667
                                                                  92214647.511 6
  22998880.133          38.250
 124993222.031 6  97397350.386 6  23785417.594    23785422.915    23785416.901
        38.250          36.250    23785423.478    93339123.219 7  23785423.338
        42.750

 140922919.333 6                  26816727.099
        39.500                                   105234715.085 6  26816732.192
        40.000   114385535.745 7  26816730.650          43.250   107979952.172 6
  26816729.637          41.250   106607342.203 7  26816730.541          43.750
 127165882.807 6  99090320.086 6  24198854.890    24198858.413    24198854.560
        38.750          36.250    24198858.950


 122490455.627 7  95270363.745 5  22938511.870    22938518.671    22938512.219
        42.750          31.250    22938518.474
                                                                  91972592.548 6
  22938507.010          39.500
 129746713.430 6 100914158.701 4  24314474.203                    24314473.438
        36.750          26.750    24314479.633


 109272472.263 6  84989675.829 6  20434472.599    20434479.354    20434472.371
        41.500          38.250    20434479.488


 107483080.775 8                  20163530.894                    20163530.402
        48.500


 109442479.619 8  85121967.863 7  20480650.438    20480653.994    20480650.505
        52.000          42.750    20480653.994
                                                                  82117738.409 7
  20480641.715          47.000
 122530168.672 6  95478086.78743  23316700.610    23316702.063    23316700.195
        41.750          23.000


 105968850.819 8  82573243.98947  20165144.413    20165141.453    20165143.135
        50.250          45.500


                                  24277902.914
        24.000


 24  1  7  0 13  0.0000000  0 26E26G12G22R21G24G11G14E04E21E19E15E13
                                G17G06R22G30E27G15R09R02R20R10R11G13
                                G19R01
 131139128.205 7                  24954917.411
        45.000                                    97928668.046 7  24954920.876
        46.250   106444172.430 8  24954920.224          48.500   100483309.983 7
  24954918.236          47.000    99205993.588 8  24954919.368          49.750
 130732208.193 6 101869274.451 5  24877510.267    24877513.129    24877509.794
        36.500          34.500    24877514.157


 114110533.303 8  88917369.64646  21714486.818    21714485.521    21714485.987
        48.500          38.000


 104981239.711 8  81652232.333 8  19618229.549    19618235.055    19618229.924
        52.250          48.000    19618234.813
                                                                  78659961.630 8
  19618220.662          50.250
 114793479.366 7  89449502.582 7  21844456.599    21844459.187    21844456.309
        45.250          43.750    21844459.308    85722452.061 8  21844459.218
        49.250

 126174914.245 6  98318158.288 6  24010277.173    24010279.891    24010276.968
        39.250          38.750    24010280.289    94221590.799 6  24010284.080
        41.750                                                   126174912.245 6
  24010276.738          39.000
 117314991.153 7  91414351.530 7  22324275.329    22324276.143    22324275.070
        44.250          43.500    22324276.031    87605459.841 7  22324280.215
        47.250                                                   117315004.159 7
  22324275.395          44.500
 141105106.831 6                  26851399.262
        38.250                                   105370745.692 6  26851404.292
        41.500   114533404.948 7  26851402.647          42.000   108119539.204 7
  26851401.898          42.500   106745149.524 7  26851402.847          45.000
 126078667.709 8                  23991946.765
        49.000                                    94149765.938 8  23991949.698
        50.000   102336662.160 8  23991948.840          52.750    96605825.754 8
  23991947.357          51.250    95377799.420 8  23991948.436          53.500
 142007888.840 5                  27023190.447
        34.250                                   106044911.305 6  27023196.694
        37.000   115266183.162 5  27023193.327          35.750   108811287.360 6
  27023193.883          38.000   107428104.408 6  27023195.288          40.500
 145014308.252 6                  27595287.992
        37.000                                   108290009.196 6  27595294.056
        37.500   117706480.985 6  27595290.921          41.000   111114946.261 6
  27595291.294          37.750   109702486.300 6  27595292.266          40.500
 128427062.868 7                  24438824.806
        47.250                                    95903424.830 8  24438828.799
        48.250   104242806.640 8  24438825.321          50.750    98405236.032 8
  24438826.458          49.500    97154333.005 8  24438827.577          52.000
 113303664.343 7  88288687.469 7  21560923.216    21560922.589    21560922.734
        47.750          44.000    21560922.652


 113477995.226 7  88424496.576 7  21594120.117    21594123.600    21594119.885
        46.250          44.500    21594124.092    84740156.923 8  21594123.702
        48.000

 122704773.067 7  95437052.883 5  22986727.025    22986735.005    22986728.013
        43.000          31.750    22986735.394
                                                                  92165903.431 6
  22986723.260          39.000
 125046730.307 6  97439045.106 5  23795599.923    23795605.333    23795599.226
        38.250          35.500    23795605.485    93379080.637 7  23795606.106
        43.250

 140947677.828 6                  26821438.152
        39.250                                   105253203.570 6  26821443.608
        40.250   114405631.937 7  26821441.815          42.750   107998922.955 6
  26821441.070          41.250   106626071.836 7  26821441.858          43.750
 127199001.632 6  99116126.960 6  24205157.483    24205160.966    24205157.153
        39.000          36.500    24205161.087


 122534838.567 7  95304883.799 5  22946822.597    22946831.446    22946823.210
        42.000          32.500    22946830.784
                                                                  92005917.694 6
  22946817.411          39.000
 129751742.434 5 100918070.216 4  24315415.709                    24315415.374
        34.750          28.250    24315426.890


 109311171.537 6  85019775.250 6  20441709.452    20441716.033    20441709.751
        41.750          39.000    20441716.533


 107498003.730 8                  20166330.203                    20166329.868
        48.750


 109407838.316 8  85095024.644 7  20474167.258    20474171.445    20474167.535
        51.750          43.250    20474171.615
                                                                  82091746.109 7
  20474159.023          47.250
 122575014.991 6  95513031.96143  23325234.627    23325235.982    23325234.198
        41.750          22.500


 105977046.987 8  82579630.63047  20166704.010    20166701.089    20166702.732
        50.250          45.750


                                  24285167.576
        23.500


 24  1  7  0 13 15.0000000  0 26E26G12G22R21G24G11G14E04E21E19E15E13
                                G17G06R22G30E27G15R09R02R20R10R11G13
                                G19R01
 131100434.326 7                  24947554.530
        45.500                                    97899773.337 7  24947557.566
        46.250   106412765.108 8  24947556.985          49.000   100453661.500 7
  24947554.944          47.000    99176721.993 8  24947556.103          49.750
 130690702.321 6 101836932.294 5  24869611.775    24869614.740    24869611.297
        36.000          34.000    24869615.799


 114125938.286 8  88929373.53446  21717418.167    21717417.116    21717417.336
        48.250          38.000


 104951370.736 8  81629000.942 8  19612647.710    19612653.324    19612648.068
        52.500          48.000    19612653.748
                                                                  78637581.581 8
  19612638.855          50.500
 114763462.154 7  89426112.587 7  21838744.439    21838747.109    21838744.149
        45.000          43.500    21838747.091    85700036.651 8  21838746.987
        49.000

 126120727.086 6  98275934.601 6  23999965.279    23999968.208    23999965.074
        38.750          38.750    23999968.548    94181126.454 7  23999972.835
        42.000                                                   126120725.084 6
  23999965.019          39.250
 117343272.629 7  91436389.024 7  22329657.056    22329657.829    22329656.797
        44.000          43.000    22329657.726    87626579.113 7  22329662.049
        47.000                                                   117343285.631 7
  22329657.260          44.750
 141115482.675 6                  26853373.504
        38.250                                   105378493.906 6  26853378.584
        41.500   114541826.891 7  26853376.662          42.250   108127489.534 7
  26853376.024          42.250   106752998.793 7  26853377.237          44.750
 126081718.221 8                  23992527.310
        49.250                                    94152043.927 8  23992530.140
        50.000   102339138.232 8  23992529.336          53.250    96608163.173 8
  23992527.817          51.250    95380107.123 8  23992528.919          53.750
 142045788.345 5                  27030402.489
        34.750                                   106073212.885 6  27030408.526
        36.500   115296945.748 6  27030406.000          36.000   108840327.236 6
  27030405.782          37.750   107456775.135 6  27030407.299          40.250
 145048772.894 6                  27601845.701
        37.000                                   108315745.787 6  27601852.391
        38.000   117734455.523 6  27601849.431          41.750   111141354.251 6
  27601849.795          37.750   109728558.592 6  27601850.740          41.000
 128426604.596 7                  24438737.613
        47.750                                    95903082.636 8  24438741.584
        48.250   104242434.681 8  24438738.154          51.250    98404884.914 8
  24438739.296          49.500    97153986.349 8  24438740.348          52.000
 113337730.234 7  88315232.326 7  21567405.699    21567405.122    21567405.217
        47.250          44.000    21567405.404


 113437357.029 7  88392830.501 7  21586386.973    21586390.259    21586386.741
        46.000          44.250    21586390.948    84709810.285 8  21586390.401
        48.250

 122639923.468 7  95386614.425 5  22974578.314    22974586.728    22974579.191
        43.000          30.250    22974584.067
                                                                  92117193.824 6
  22974574.388          39.000
 125100280.443 6  97480772.466 5  23805790.115    23805795.606    23805789.409
        38.000          35.500    23805796.348    93419069.328 7  23805796.003
        42.750

 140972454.970 6                  26826153.240
        39.750                                   105271705.962 6  26826158.700
        40.500   114425743.226 7  26826157.019          43.250   108017908.017 6
  26826155.796          40.750   106644815.565 7  26826156.834          43.750
 127232173.209 6  99141974.881 6  24211469.691    24211473.358    24211469.374
        39.250          36.000    24211473.921


 122579291.543 7  95339458.331 5  22955149.893    22955154.731    22955150.086
        43.000          32.500    22955154.624
                                                                  92039295.410 6
  22955142.095          38.750
 129756931.959 5 100922106.607 4  24316387.431                    24316387.203
        33.250          28.250    24316393.197


 109350022.014 7  85049992.291 6  20448974.397    20448981.528    20448974.974
        42.000          39.000    20448982.395


 107513036.084 8                  20169150.146                    20169149.980
        48.500


 109373252.710 8  85068124.768 7  20467695.232    20467699.347    20467695.326
        52.000          43.250    20467699.163
                                                                  82065795.612 7
  20467686.862          47.500
 122619891.388 6  95548000.55943  23333774.379    23333775.555    23333773.950
        41.750          22.000


 105985344.784 8  82586096.46447  20168282.988    20168280.094    20168281.705
        50.000          45.500


                                  24292447.439
        24.500


 24  1  7  0 13 30.0000000  0 26E26G12G22R21G24G11G14E04E21E19E15E13
                                G17G06R22G30E27G15R09R02R20R10R11G13
                                G19R01
 131061800.642 7                  24940202.683
        45.000                                    97870923.580 7  24940205.741
        46.000   106381406.656 8  24940205.178          48.750   100424059.131 7
  24940203.150          47.250    99147495.929 8  24940204.300          49.750
 130649193.465 6 101804587.877 5  24861712.847    24861715.655    24861712.382
        36.250          33.250    24861716.125


 114141377.500 8  88941404.09846  21720356.243    21720355.200    21720355.412
        48.500          38.000


 104921683.445 8  81605910.858 7  19607100.256    19607105.498    19607100.314
        52.500          47.750    19607105.297
                                                                  78615337.662 8
  19607091.087          50.250
 114733563.686 7  89402815.114 7  21833054.940    21833057.604    21833054.654
        45.500          43.250    21833057.931    85677709.905 8  21833057.505
        48.750

 126066554.818 6  98233722.528 6  23989656.106    23989659.437    23989655.896
        38.750          37.500    23989659.138    94140673.233 7  23989664.096
        42.000                                                   126066552.814 6
  23989656.418          38.500
 117371599.944 7  91458462.256 7  22335047.588    22335048.353    22335047.334
        44.000          43.250    22335049.193    87647732.624 7  22335052.403
        46.750                                                   117371612.950 7
  22335047.542          44.250
 141125952.179 6                  26855365.487
        37.500                                   105386312.070 6  26855370.988
        41.000   114550324.882 7  26855368.971          42.250   108135511.657 7
  26855368.244          42.250   106760918.938 7  26855369.475          44.750
 126084796.369 8                  23993112.986
        48.750                                    94154342.557 8  23993115.924
        49.750   102341636.736 8  23993115.084          53.000    96610521.764 8
  23993113.636          51.250    95382435.734 8  23993114.657          53.500
 142083705.226 5                  27037618.347
        35.000                                   106101527.415 6  27037623.816
        36.000   115327722.435 6  27037621.259          36.000   108869380.405 6
  27037621.099          37.250   107485458.987 6  27037622.558          39.750
 145083304.975 6                  27608417.310
        36.750                                   108341532.704 6  27608423.638
        37.750   117762484.798 6  27608420.454          41.500   111167813.898 6
  27608421.341          38.000   109754681.871 6  27608421.960          40.750
 128426259.988 7                  24438672.015
        47.000                                    95902825.326 8  24438675.959
        48.250   104242154.986 8  24438672.668          51.000    98404620.883 8
  24438673.716          49.750    97153725.678 8  24438674.755          52.000
 113371840.971 7  88341812.131 7  21573896.743    21573896.192    21573896.265
        47.500          44.000    21573896.644


 113396818.026 7  88361241.734 7  21578672.834    21578675.731    21578672.606
        46.250          44.000    21578676.268    84679537.722 8  21578676.021
        48.000

 122575123.058 7  95336214.264 5  22962439.979    22962446.658    22962439.783
        43.250          31.000    22962444.650
                                                                  92068521.178 6
  22962435.118          38.750
 125153875.084 6  97522534.465 5  23815989.475    23815994.139    23815988.769
        38.500          35.000    23815994.537    93459091.258 7  23815995.046
        42.750

 140997253.701 6                  26830872.024
        39.000                                   105290224.494 6  26830877.949
        40.500   114445872.071 7  26830875.999          43.000   108036909.638 6
  26830875.035          41.250   106663575.640 7  26830875.917          43.750
 127265400.025 6  99167865.888 6  24217792.929    24217796.076    24217792.608
        39.500          36.250    24217796.501


 122623817.414 7  95374089.550 5  22963486.872    22963494.625    22963486.899
        42.500          33.750    22963495.202
                                                                  92072727.842 6
  22963481.314          39.250
 129762284.777 5 100926269.852 4  24317392.666                    24317392.340
        34.500          27.250    24317401.589


 109389025.489 7  85080328.327 6  20456269.108    20456275.241    20456268.862
        42.000          39.000    20456275.500


 107528181.086 8                  20171991.312                    20171991.142
        48.500


 109338726.167 8  85041270.820 7  20461234.194    20461237.871    20461234.440
        52.000          43.000    20461237.951
                                                                  82039889.417 7
  20461225.592          47.250
 122664800.442 6  95582994.63043  23342319.668    23342321.349    23342319.244
        40.750          21.500


 105993746.945 8  82592643.61847  20169881.955    20169878.932    20169880.677
        50.000          45.500


                                  24299747.681
        24.750


